[
    {
        "gid": "9021014001005000",
        "name": "Backa Bergö",
        "lat": 57.74982875,
        "long": 11.9964285
    },
    {
        "gid": "9021014001038000",
        "name": "Styrsö Bratten",
        "lat": 57.61611842,
        "long": 11.79425591
    },
    {
        "gid": "9021014001044000",
        "name": "Knarrholmen",
        "lat": 57.62599408,
        "long": 11.82868732
    },
    {
        "gid": "9021014001061000",
        "name": "Källö",
        "lat": 57.62315463,
        "long": 11.78075211
    },
    {
        "gid": "9021014001064000",
        "name": "Vargö",
        "lat": 57.6233794,
        "long": 11.75720989
    },
    {
        "gid": "9021014001085000",
        "name": "Vättleskolan",
        "lat": 57.80080476,
        "long": 12.06304585
    },
    {
        "gid": "9021014001200000",
        "name": "Axel Dahlströms Torg",
        "lat": 57.67244031,
        "long": 11.92744803
    },
    {
        "gid": "9021014001245000",
        "name": "Backvägen",
        "lat": 57.72144357,
        "long": 12.05871531
    },
    {
        "gid": "9021014001410000",
        "name": "Beryllgatan",
        "lat": 57.65907797,
        "long": 11.88715855
    },
    {
        "gid": "9021014001430000",
        "name": "Bessemergatan",
        "lat": 57.72388307,
        "long": 11.97838803
    },
    {
        "gid": "9021014001460000",
        "name": "Bingared",
        "lat": 57.79245928,
        "long": 12.12988286
    },
    {
        "gid": "9021014001740000",
        "name": "Brunnsbotorget",
        "lat": 57.72747005,
        "long": 11.97052854
    },
    {
        "gid": "9021014001762000",
        "name": "Brunstorp",
        "lat": 57.8069754,
        "long": 11.9094578
    },
    {
        "gid": "9021014001900000",
        "name": "Bögatan",
        "lat": 57.70099552,
        "long": 12.01644054
    },
    {
        "gid": "9021014001980000",
        "name": "Chapmans Torg",
        "lat": 57.69431471,
        "long": 11.91958567
    },
    {
        "gid": "9021014002040000",
        "name": "Delabäcken",
        "lat": 57.81939498,
        "long": 12.20188012
    },
    {
        "gid": "9021014002060000",
        "name": "Dockeredsvägen",
        "lat": 57.81534725,
        "long": 12.18912602
    },
    {
        "gid": "9021014002120000",
        "name": "Doktor Westrings Gata",
        "lat": 57.67913692,
        "long": 11.97518568
    },
    {
        "gid": "9021014002200000",
        "name": "Ekmanska",
        "lat": 57.69955992,
        "long": 12.00969265
    },
    {
        "gid": "9021014002280000",
        "name": "Eriksbo Östergärde",
        "lat": 57.77215909,
        "long": 12.04592821
    },
    {
        "gid": "9021014002320000",
        "name": "Falutorget",
        "lat": 57.71777956,
        "long": 11.97948491
    },
    {
        "gid": "9021014002335000",
        "name": "Finlandsvägen",
        "lat": 57.74844632,
        "long": 11.93871573
    },
    {
        "gid": "9021014002373000",
        "name": "Fjällhavren",
        "lat": 57.80242188,
        "long": 12.07584346
    },
    {
        "gid": "9021014002393000",
        "name": "Fjällsyran",
        "lat": 57.80093286,
        "long": 12.0674123
    },
    {
        "gid": "9021014002670000",
        "name": "Gamlestads Torg",
        "lat": 57.72783185,
        "long": 12.00574595
    },
    {
        "gid": "9021014002680000",
        "name": "Garaget Högstena",
        "lat": 57.77283322,
        "long": 11.85482811
    },
    {
        "gid": "9021014002795000",
        "name": "Gropens Gård",
        "lat": 57.78328097,
        "long": 12.03495722
    },
    {
        "gid": "9021014002960000",
        "name": "Gustavsplatsen",
        "lat": 57.72332672,
        "long": 12.00983079
    },
    {
        "gid": "9021014002977000",
        "name": "Gåsmossen",
        "lat": 57.63376545,
        "long": 11.95980868
    },
    {
        "gid": "9021014003000000",
        "name": "Simonsvägen",
        "lat": 57.78244995,
        "long": 11.99435737
    },
    {
        "gid": "9021014003070000",
        "name": "Halleskärsgatan",
        "lat": 57.63633379,
        "long": 11.88007372
    },
    {
        "gid": "9021014003140000",
        "name": "Herrgårdsgatan",
        "lat": 57.70263606,
        "long": 12.00371394
    },
    {
        "gid": "9021014003210000",
        "name": "Hogenskildsgatan",
        "lat": 57.7110581,
        "long": 12.01400011
    },
    {
        "gid": "9021014003230000",
        "name": "Hovdalen",
        "lat": 57.76318058,
        "long": 11.81244512
    },
    {
        "gid": "9021014003626000",
        "name": "John Bunyans Väg",
        "lat": 57.73760394,
        "long": 11.86044395
    },
    {
        "gid": "9021014003670000",
        "name": "Kaggeledstorget",
        "lat": 57.72306333,
        "long": 12.03377313
    },
    {
        "gid": "9021014003680000",
        "name": "Kallebäck",
        "lat": 57.68075204,
        "long": 12.0174509
    },
    {
        "gid": "9021014003930000",
        "name": "Knipared",
        "lat": 57.79381031,
        "long": 12.13398313
    },
    {
        "gid": "9021014003932000",
        "name": "Kobbegården",
        "lat": 57.64073942,
        "long": 11.94115739
    },
    {
        "gid": "9021014003980000",
        "name": "Korsvägen",
        "lat": 57.69674539,
        "long": 11.98691097
    },
    {
        "gid": "9021014004007000",
        "name": "Krabbeliderna",
        "lat": 57.73102182,
        "long": 11.91073409
    },
    {
        "gid": "9021014004010000",
        "name": "Kransen",
        "lat": 57.72077042,
        "long": 12.01766769
    },
    {
        "gid": "9021014004052000",
        "name": "Kryddnejlikegatan",
        "lat": 57.80878604,
        "long": 12.05183934
    },
    {
        "gid": "9021014004145000",
        "name": "Kvibergsskolan",
        "lat": 57.73479873,
        "long": 12.0359709
    },
    {
        "gid": "9021014004155000",
        "name": "Säve Depå",
        "lat": 57.77627434,
        "long": 11.8871503
    },
    {
        "gid": "9021014004160000",
        "name": "Kvillängen",
        "lat": 57.73220616,
        "long": 11.95889125
    },
    {
        "gid": "9021014004250000",
        "name": "Kärra Kyrka",
        "lat": 57.79200258,
        "long": 11.99127375
    },
    {
        "gid": "9021014004310000",
        "name": "Lana",
        "lat": 57.67816391,
        "long": 12.00415779
    },
    {
        "gid": "9021014004320000",
        "name": "Lantmilsgatan",
        "lat": 57.6671863,
        "long": 11.92465556
    },
    {
        "gid": "9021014004340000",
        "name": "Lefflersgatan",
        "lat": 57.72248089,
        "long": 12.01588068
    },
    {
        "gid": "9021014004360000",
        "name": "Allebyvägen",
        "lat": 57.7515485,
        "long": 11.8649503
    },
    {
        "gid": "9021014004365000",
        "name": "Lexby Odlareväg",
        "lat": 57.750328,
        "long": 11.87083933
    },
    {
        "gid": "9021014004440000",
        "name": "Lillebybadet",
        "lat": 57.7440083,
        "long": 11.7561915
    },
    {
        "gid": "9021014004450000",
        "name": "Lilleby Kronogård",
        "lat": 57.73929044,
        "long": 11.80713719
    },
    {
        "gid": "9021014004455000",
        "name": "Lillekärr Norra",
        "lat": 57.79611501,
        "long": 11.99072923
    },
    {
        "gid": "9021014004490000",
        "name": "Lindholmen",
        "lat": 57.70770985,
        "long": 11.93673345
    },
    {
        "gid": "9021014004493000",
        "name": "Lindholmspiren",
        "lat": 57.70552006,
        "long": 11.93984007
    },
    {
        "gid": "9021014004500000",
        "name": "Linnarhultsvägen",
        "lat": 57.77661041,
        "long": 12.06459112
    },
    {
        "gid": "9021014004565000",
        "name": "Lyckhem",
        "lat": 57.6011639,
        "long": 11.95561791
    },
    {
        "gid": "9021014004637000",
        "name": "Länsmanstorget",
        "lat": 57.73261853,
        "long": 11.89408011
    },
    {
        "gid": "9021014004840000",
        "name": "Munkebäcksmotet",
        "lat": 57.72429224,
        "long": 12.0260123
    },
    {
        "gid": "9021014004940000",
        "name": "Nils Ericson Terminalen",
        "lat": 57.71046377,
        "long": 11.97235325
    },
    {
        "gid": "9021014004990000",
        "name": "Nolvik",
        "lat": 57.77900722,
        "long": 11.8284807
    },
    {
        "gid": "9021014001045000",
        "name": "Asperö Östra",
        "lat": 57.64925638,
        "long": 11.80727589
    },
    {
        "gid": "9021014001048000",
        "name": "Asperö Norra",
        "lat": 57.65067088,
        "long": 11.79249793
    },
    {
        "gid": "9021014001070000",
        "name": "Amhults Torg",
        "lat": 57.7100243,
        "long": 11.77419748
    },
    {
        "gid": "9021014001075000",
        "name": "Angered Centrum",
        "lat": 57.79607041,
        "long": 12.04920782
    },
    {
        "gid": "9021014001115000",
        "name": "Tagenevägen 11",
        "lat": 57.76953855,
        "long": 11.99225169
    },
    {
        "gid": "9021014001160000",
        "name": "Aröds Äng",
        "lat": 57.73469886,
        "long": 11.95752242
    },
    {
        "gid": "9021014001173000",
        "name": "Askims Stationsväg",
        "lat": 57.6353026,
        "long": 11.93192875
    },
    {
        "gid": "9021014001178000",
        "name": "Askims Kyrka",
        "lat": 57.61539835,
        "long": 11.94211624
    },
    {
        "gid": "9021014001210000",
        "name": "Backa",
        "lat": 57.63681585,
        "long": 11.94430309
    },
    {
        "gid": "9021014001300000",
        "name": "Batterivägen",
        "lat": 57.71179641,
        "long": 11.7235377
    },
    {
        "gid": "9021014001457000",
        "name": "Billdal",
        "lat": 57.57769526,
        "long": 11.9410822
    },
    {
        "gid": "9021014001475000",
        "name": "Bjurslätts Torg",
        "lat": 57.72844119,
        "long": 11.92619306
    },
    {
        "gid": "9021014001537000",
        "name": "Björsared",
        "lat": 57.79745632,
        "long": 12.1438099
    },
    {
        "gid": "9021014001745000",
        "name": "Brunnsgatan",
        "lat": 57.69377736,
        "long": 11.9582875
    },
    {
        "gid": "9021014001795000",
        "name": "Byfogdegatan",
        "lat": 57.72559241,
        "long": 12.01328923
    },
    {
        "gid": "9021014001960000",
        "name": "Chalmers",
        "lat": 57.69000378,
        "long": 11.97295362
    },
    {
        "gid": "9021014001990000",
        "name": "Cold Stores",
        "lat": 57.72374049,
        "long": 11.98258281
    },
    {
        "gid": "9021014002020000",
        "name": "Dalavägen",
        "lat": 57.67652683,
        "long": 11.8978759
    },
    {
        "gid": "9021014002130000",
        "name": "Domkyrkan",
        "lat": 57.70429744,
        "long": 11.96370104
    },
    {
        "gid": "9021014002220000",
        "name": "Ellered",
        "lat": 57.84746849,
        "long": 11.9653732
    },
    {
        "gid": "9021014002225000",
        "name": "Ellesbo",
        "lat": 57.83447194,
        "long": 12.0046664
    },
    {
        "gid": "9021014002310000",
        "name": "Fagerängsgatan",
        "lat": 57.69209637,
        "long": 12.00839467
    },
    {
        "gid": "9021014002390000",
        "name": "Fjällskolan",
        "lat": 57.69505348,
        "long": 11.9392798
    },
    {
        "gid": "9021014002465000",
        "name": "Friedländers Gata",
        "lat": 57.75522141,
        "long": 11.99075189
    },
    {
        "gid": "9021014002470000",
        "name": "Frihamnen",
        "lat": 57.72031584,
        "long": 11.96004061
    },
    {
        "gid": "9021014002473000",
        "name": "Frihamnspiren",
        "lat": 57.71579731,
        "long": 11.96238475
    },
    {
        "gid": "9021014002560000",
        "name": "Köpcentrum 421",
        "lat": 57.64989799,
        "long": 11.94858423
    },
    {
        "gid": "9021014002600000",
        "name": "Fänkålsgatan",
        "lat": 57.81249779,
        "long": 12.0398832
    },
    {
        "gid": "9021014002790000",
        "name": "Gropegårdsgatan",
        "lat": 57.71823104,
        "long": 11.9184427
    },
    {
        "gid": "9021014002850000",
        "name": "Grönsakstorget",
        "lat": 57.70249064,
        "long": 11.96443998
    },
    {
        "gid": "9021014002920000",
        "name": "Gunnesgärde",
        "lat": 57.74890837,
        "long": 11.9332972
    },
    {
        "gid": "9021014002990000",
        "name": "Göddered",
        "lat": 57.85483036,
        "long": 11.98651946
    },
    {
        "gid": "9021014003081000",
        "name": "Hammarkullens Väg",
        "lat": 57.78455163,
        "long": 12.03702361
    },
    {
        "gid": "9021014003237000",
        "name": "Hovåsskolan",
        "lat": 57.62133712,
        "long": 11.93682592
    },
    {
        "gid": "9021014003310000",
        "name": "Härlanda",
        "lat": 57.71807606,
        "long": 12.02003934
    },
    {
        "gid": "9021014003320000",
        "name": "Hästebäck",
        "lat": 57.58966322,
        "long": 11.94908137
    },
    {
        "gid": "9021014003510000",
        "name": "IAC Group",
        "lat": 57.73173593,
        "long": 11.84495597
    },
    {
        "gid": "9021014003540000",
        "name": "Ingeborgsgatan",
        "lat": 57.70985626,
        "long": 12.004981
    },
    {
        "gid": "9021014003620000",
        "name": "Januarigatan",
        "lat": 57.76028473,
        "long": 12.04123121
    },
    {
        "gid": "9021014003640000",
        "name": "Järntorget",
        "lat": 57.7002648,
        "long": 11.95223678
    },
    {
        "gid": "9021014003690000",
        "name": "Kallebäcksvägen",
        "lat": 57.68563641,
        "long": 12.00431265
    },
    {
        "gid": "9021014003840000",
        "name": "Klangfärgsgatan",
        "lat": 57.66179532,
        "long": 11.89604883
    },
    {
        "gid": "9021014004080000",
        "name": "Kulörgatan",
        "lat": 57.63112424,
        "long": 11.89957302
    },
    {
        "gid": "9021014004130000",
        "name": "Kustgatan",
        "lat": 57.69276662,
        "long": 11.91839116
    },
    {
        "gid": "9021014004190000",
        "name": "Kålsered",
        "lat": 57.74177521,
        "long": 11.86409925
    },
    {
        "gid": "9021014004370000",
        "name": "Handelshögskolan",
        "lat": 57.69697421,
        "long": 11.96228311
    },
    {
        "gid": "9021014004420000",
        "name": "Lilla Varholmen",
        "lat": 57.7085757,
        "long": 11.70233311
    },
    {
        "gid": "9021014004430000",
        "name": "Lillebyvägen",
        "lat": 57.73743687,
        "long": 11.79958657
    },
    {
        "gid": "9021014004525000",
        "name": "Liseberg Station (tåg)",
        "lat": 57.69817656,
        "long": 11.99493366
    },
    {
        "gid": "9021014004550000",
        "name": "Lundby Gamla Kyrka",
        "lat": 57.71281296,
        "long": 11.91593089
    },
    {
        "gid": "9021014004663000",
        "name": "Lövviksvägen",
        "lat": 57.61020925,
        "long": 11.94496389
    },
    {
        "gid": "9021014004730000",
        "name": "Mariaplan",
        "lat": 57.68665393,
        "long": 11.92057189
    },
    {
        "gid": "9021014004780000",
        "name": "Masthuggstorget",
        "lat": 57.69944093,
        "long": 11.94379466
    },
    {
        "gid": "9021014004790000",
        "name": "Paradisgatan",
        "lat": 57.69569521,
        "long": 11.9420289
    },
    {
        "gid": "9021014004945000",
        "name": "Nordstan",
        "lat": 57.709249,
        "long": 11.97079231
    },
    {
        "gid": "9021014005050000",
        "name": "Norskog",
        "lat": 57.74346032,
        "long": 11.74919744
    },
    {
        "gid": "9021014005285000",
        "name": "Pilegårdsvägen",
        "lat": 57.64350269,
        "long": 11.93983525
    },
    {
        "gid": "9021014005290000",
        "name": "Pingstvägen",
        "lat": 57.6620553,
        "long": 11.88105027
    },
    {
        "gid": "9021014005305000",
        "name": "Plastteknik",
        "lat": 57.74189073,
        "long": 11.99407872
    },
    {
        "gid": "9021014005430000",
        "name": "Ragnhildsholmen",
        "lat": 57.84316759,
        "long": 11.9430995
    },
    {
        "gid": "9021014005435000",
        "name": "Ramberget",
        "lat": 57.71445605,
        "long": 11.9276818
    },
    {
        "gid": "9021014005550000",
        "name": "Rödgatan",
        "lat": 57.62734166,
        "long": 11.90036472
    },
    {
        "gid": "9021014005573000",
        "name": "Rönning",
        "lat": 57.81989143,
        "long": 12.00075626
    },
    {
        "gid": "9021014005600000",
        "name": "Sahlgrenska Huvudentré",
        "lat": 57.68362828,
        "long": 11.96083327
    },
    {
        "gid": "9021014005012000",
        "name": "Nordviksgatan",
        "lat": 57.70702126,
        "long": 11.92206563
    },
    {
        "gid": "9021014005020000",
        "name": "Nordängen",
        "lat": 57.83070336,
        "long": 11.91719756
    },
    {
        "gid": "9021014005080000",
        "name": "Norumshöjd",
        "lat": 57.75638229,
        "long": 11.91980073
    },
    {
        "gid": "9021014005110000",
        "name": "Nymilsgatan",
        "lat": 57.66275004,
        "long": 11.92444434
    },
    {
        "gid": "9021014005137000",
        "name": "Polhemsplatsen",
        "lat": 57.70831755,
        "long": 11.97731815
    },
    {
        "gid": "9021014005140000",
        "name": "Olivedalsgatan",
        "lat": 57.69199637,
        "long": 11.95262954
    },
    {
        "gid": "9021014005145000",
        "name": "Olofstorp",
        "lat": 57.80495724,
        "long": 12.16929473
    },
    {
        "gid": "9021014005225000",
        "name": "Otterbäck",
        "lat": 57.62185648,
        "long": 11.94639776
    },
    {
        "gid": "9021014005270000",
        "name": "Peppargatan",
        "lat": 57.80097958,
        "long": 12.0243128
    },
    {
        "gid": "9021014005337000",
        "name": "Prinsgatan",
        "lat": 57.69690148,
        "long": 11.95104226
    },
    {
        "gid": "9021014005380000",
        "name": "Olof Asklunds Gata",
        "lat": 57.66042805,
        "long": 11.93913009
    },
    {
        "gid": "9021014005445000",
        "name": "Ramnebacken",
        "lat": 57.78951339,
        "long": 12.03244316
    },
    {
        "gid": "9021014005477000",
        "name": "Ringestensvägen",
        "lat": 57.63242543,
        "long": 11.94524189
    },
    {
        "gid": "9021014005730000",
        "name": "Sannegårdshamnen",
        "lat": 57.70779112,
        "long": 11.93081591
    },
    {
        "gid": "9021014005795000",
        "name": "Sjögången",
        "lat": 57.67763617,
        "long": 11.87103686
    },
    {
        "gid": "9021014005926000",
        "name": "Skräppekärr Östra",
        "lat": 57.74914434,
        "long": 12.01042113
    },
    {
        "gid": "9021014006040000",
        "name": "Smaragdgatan",
        "lat": 57.64533561,
        "long": 11.89924881
    },
    {
        "gid": "9021014006100000",
        "name": "Smörslottsgatan",
        "lat": 57.72008162,
        "long": 12.05541617
    },
    {
        "gid": "9021014006160000",
        "name": "Spaldingsgatan",
        "lat": 57.68965709,
        "long": 11.98327052
    },
    {
        "gid": "9021014006210000",
        "name": "Steken",
        "lat": 57.78881905,
        "long": 12.02238612
    },
    {
        "gid": "9021014006315000",
        "name": "Stora Oxhagen",
        "lat": 57.85419747,
        "long": 12.00076805
    },
    {
        "gid": "9021014006615000",
        "name": "Sävenäs Lokstation",
        "lat": 57.72643104,
        "long": 12.02408952
    },
    {
        "gid": "9021014006680000",
        "name": "Teleskopgatan",
        "lat": 57.75973541,
        "long": 12.06009215
    },
    {
        "gid": "9021014006800000",
        "name": "Tomtebacken",
        "lat": 57.83767003,
        "long": 11.9264943
    },
    {
        "gid": "9021014006830000",
        "name": "Toredamm",
        "lat": 57.68043232,
        "long": 11.88052778
    },
    {
        "gid": "9021014007013000",
        "name": "Trollåsen",
        "lat": 57.62664247,
        "long": 11.94509111
    },
    {
        "gid": "9021014007030000",
        "name": "Tryckerigatan",
        "lat": 57.73612009,
        "long": 11.98536579
    },
    {
        "gid": "9021014007043000",
        "name": "Trädgårdsberget",
        "lat": 57.80487341,
        "long": 12.04360606
    },
    {
        "gid": "9021014007095000",
        "name": "Tumlehedsbadet",
        "lat": 57.72740149,
        "long": 11.72390693
    },
    {
        "gid": "9021014007130000",
        "name": "Tycho Brahes Gata",
        "lat": 57.76260562,
        "long": 12.05829495
    },
    {
        "gid": "9021014007170000",
        "name": "Ugglegården",
        "lat": 57.59776152,
        "long": 11.92536724
    },
    {
        "gid": "9021014007370000",
        "name": "Welandergatan",
        "lat": 57.70605507,
        "long": 12.02404987
    },
    {
        "gid": "9021014007400000",
        "name": "Vidblicksgatan",
        "lat": 57.69225541,
        "long": 11.97991576
    },
    {
        "gid": "9021014007492000",
        "name": "Volvo Torslanda TK",
        "lat": 57.71820962,
        "long": 11.84139725
    },
    {
        "gid": "9021014007494000",
        "name": "Volvo Torslanda TLA",
        "lat": 57.72525381,
        "long": 11.84669669
    },
    {
        "gid": "9021014007515000",
        "name": "Välen",
        "lat": 57.63518244,
        "long": 11.91518073
    },
    {
        "gid": "9021014007550000",
        "name": "Vårväderstorget",
        "lat": 57.71308128,
        "long": 11.89310136
    },
    {
        "gid": "9021014007592000",
        "name": "Västra Lindås",
        "lat": 57.5660958,
        "long": 11.9431096
    },
    {
        "gid": "9021014011211000",
        "name": "Västeräng",
        "lat": 57.73583076,
        "long": 11.64966642
    },
    {
        "gid": "9021014011313000",
        "name": "Norgård",
        "lat": 57.71135106,
        "long": 11.64685808
    },
    {
        "gid": "9021014011319000",
        "name": "Kärrsviksvägen",
        "lat": 57.71336507,
        "long": 11.64280853
    },
    {
        "gid": "9021014011331000",
        "name": "Intaget",
        "lat": 57.71488395,
        "long": 11.65501356
    },
    {
        "gid": "9021014011411000",
        "name": "Gårda",
        "lat": 57.69194943,
        "long": 11.65012961
    },
    {
        "gid": "9021014011414000",
        "name": "Ringvägen",
        "lat": 57.68797041,
        "long": 11.644824
    },
    {
        "gid": "9021014011443000",
        "name": "Vipekärr",
        "lat": 57.68793303,
        "long": 11.65766757
    },
    {
        "gid": "9021014011446000",
        "name": "Hönö heden",
        "lat": 57.69470635,
        "long": 11.6585205
    },
    {
        "gid": "9021014011447000",
        "name": "Hönö kyrkogård",
        "lat": 57.68756342,
        "long": 11.66068923
    },
    {
        "gid": "9021014011609000",
        "name": "Skarvik",
        "lat": 57.73369545,
        "long": 11.67401371
    },
    {
        "gid": "9021014012128000",
        "name": "Skyttegatan",
        "lat": 57.65098352,
        "long": 12.05034014
    },
    {
        "gid": "9021014012140000",
        "name": "Lackarebäck",
        "lat": 57.66585001,
        "long": 12.01134598
    },
    {
        "gid": "9021014012222000",
        "name": "Wennerbergsgatan",
        "lat": 57.66854182,
        "long": 11.98767562
    },
    {
        "gid": "9021014012232000",
        "name": "Bifrost",
        "lat": 57.66156574,
        "long": 11.99781321
    },
    {
        "gid": "9021014012248000",
        "name": "Eklanda skola",
        "lat": 57.65067197,
        "long": 11.9714203
    },
    {
        "gid": "9021014012253000",
        "name": "Eklanda torg",
        "lat": 57.65102819,
        "long": 11.96416481
    },
    {
        "gid": "9021014012341000",
        "name": "AstraZeneca",
        "lat": 57.64366186,
        "long": 12.01754589
    },
    {
        "gid": "9021014012372000",
        "name": "Kallblodsgatan",
        "lat": 57.64572377,
        "long": 12.00440251
    },
    {
        "gid": "9021014012411000",
        "name": "Lejonslättsgatan",
        "lat": 57.64759538,
        "long": 12.04380941
    },
    {
        "gid": "9021014012431000",
        "name": "Kikås",
        "lat": 57.65269801,
        "long": 12.0483232
    },
    {
        "gid": "9021014012541000",
        "name": "Heleneviksvägen",
        "lat": 57.66676058,
        "long": 12.05783013
    },
    {
        "gid": "9021014012622000",
        "name": "Kålleredsmotet",
        "lat": 57.59959027,
        "long": 12.05797137
    },
    {
        "gid": "9021014012661000",
        "name": "Bäckvägen",
        "lat": 57.60983872,
        "long": 12.06425963
    },
    {
        "gid": "9021014012664000",
        "name": "Tulebo Strandväg",
        "lat": 57.61416983,
        "long": 12.09219659
    },
    {
        "gid": "9021014012745000",
        "name": "Lunnaliden norra",
        "lat": 57.56034848,
        "long": 12.09281182
    },
    {
        "gid": "9021014012751000",
        "name": "Däldehöga",
        "lat": 57.59732737,
        "long": 12.08947431
    },
    {
        "gid": "9021014005760000",
        "name": "Selma Lagerlöfs Torg",
        "lat": 57.7497283,
        "long": 11.98087006
    },
    {
        "gid": "9021014005790000",
        "name": "Sjupundsgatan",
        "lat": 57.67520349,
        "long": 11.91911096
    },
    {
        "gid": "9021014005862000",
        "name": "SKF",
        "lat": 57.72924857,
        "long": 12.01359256
    },
    {
        "gid": "9021014005875000",
        "name": "Skogomevägen",
        "lat": 57.76799562,
        "long": 11.93576579
    },
    {
        "gid": "9021014005910000",
        "name": "Skra Bro",
        "lat": 57.75805927,
        "long": 11.83186465
    },
    {
        "gid": "9021014006158000",
        "name": "Spadegatan",
        "lat": 57.79178271,
        "long": 12.04686522
    },
    {
        "gid": "9021014006385000",
        "name": "Strömmensbergsstigen",
        "lat": 57.72277905,
        "long": 12.01175739
    },
    {
        "gid": "9021014006775000",
        "name": "Tingvallsvägen",
        "lat": 57.72459459,
        "long": 12.04197994
    },
    {
        "gid": "9021014006840000",
        "name": "Torpamotet",
        "lat": 57.72697608,
        "long": 12.03889587
    },
    {
        "gid": "9021014006860000",
        "name": "Torsgatan",
        "lat": 57.71631497,
        "long": 11.97498829
    },
    {
        "gid": "9021014007012000",
        "name": "Trankärrsgatan",
        "lat": 57.78581829,
        "long": 11.99389211
    },
    {
        "gid": "9021014007020000",
        "name": "Trulsegården",
        "lat": 57.75637164,
        "long": 11.84166421
    },
    {
        "gid": "9021014007090000",
        "name": "Trätorget",
        "lat": 57.71543677,
        "long": 12.05317369
    },
    {
        "gid": "9021014007100000",
        "name": "Tuve Centrum",
        "lat": 57.75424508,
        "long": 11.92838935
    },
    {
        "gid": "9021014007140000",
        "name": "Tångenvägen",
        "lat": 57.76014756,
        "long": 11.93755733
    },
    {
        "gid": "9021014007180000",
        "name": "Ungbrodersgatan",
        "lat": 57.74267691,
        "long": 12.05351116
    },
    {
        "gid": "9021014007260000",
        "name": "Lövgärdets Centrum",
        "lat": 57.81552477,
        "long": 12.04019073
    },
    {
        "gid": "9021014007270000",
        "name": "Varbergsgatan",
        "lat": 57.68002845,
        "long": 12.00281258
    },
    {
        "gid": "9021014007280000",
        "name": "Varmfrontsgatan",
        "lat": 57.7368302,
        "long": 11.89649169
    },
    {
        "gid": "9021014007520000",
        "name": "Vågmästareplatsen",
        "lat": 57.72068267,
        "long": 11.94504323
    },
    {
        "gid": "9021014007595000",
        "name": "Ytterhamnsmotet",
        "lat": 57.70300194,
        "long": 11.85983151
    },
    {
        "gid": "9021014007635000",
        "name": "Åketorpsgatan",
        "lat": 57.75495625,
        "long": 11.96158607
    },
    {
        "gid": "9021014007810000",
        "name": "Önnereds Brygga",
        "lat": 57.63782567,
        "long": 11.87315797
    },
    {
        "gid": "9021014007900000",
        "name": "Överåsvallen",
        "lat": 57.70886453,
        "long": 12.00143594
    },
    {
        "gid": "9021014008000000",
        "name": "Göteborg Central",
        "lat": 57.70929964,
        "long": 11.97365953
    },
    {
        "gid": "9021014011314000",
        "name": "Solhöjden",
        "lat": 57.70887743,
        "long": 11.652226
    },
    {
        "gid": "9021014011322000",
        "name": "Ekelundsvägen",
        "lat": 57.70502889,
        "long": 11.65048245
    },
    {
        "gid": "9021014011323000",
        "name": "Kanndalen",
        "lat": 57.7014687,
        "long": 11.6467313
    },
    {
        "gid": "9021014011332000",
        "name": "Blåbärsvägen",
        "lat": 57.72008244,
        "long": 11.65376073
    },
    {
        "gid": "9021014011422000",
        "name": "Hönö Röd",
        "lat": 57.69584019,
        "long": 11.64295413
    },
    {
        "gid": "9021014011445000",
        "name": "Hedens by",
        "lat": 57.69423796,
        "long": 11.65406466
    },
    {
        "gid": "9021014011520000",
        "name": "Söö",
        "lat": 57.67273056,
        "long": 11.65997392
    },
    {
        "gid": "9021014011614000",
        "name": "Mossvägen",
        "lat": 57.73332713,
        "long": 11.6764171
    },
    {
        "gid": "9021014011810000",
        "name": "Hyppeln",
        "lat": 57.75827541,
        "long": 11.61650923
    },
    {
        "gid": "9021014011850000",
        "name": "Rörö",
        "lat": 57.77140534,
        "long": 11.62110127
    },
    {
        "gid": "9021014012110000",
        "name": "Mölndals Innerstad",
        "lat": 57.65613356,
        "long": 12.01702484
    },
    {
        "gid": "9021014012130000",
        "name": "Mölndals sjukhus",
        "lat": 57.66145124,
        "long": 12.01346885
    },
    {
        "gid": "9021014012210000",
        "name": "Dalgångsgatan",
        "lat": 57.67321193,
        "long": 11.97999076
    },
    {
        "gid": "9021014012262000",
        "name": "Stallbacken",
        "lat": 57.65293389,
        "long": 11.99993501
    },
    {
        "gid": "9021014012320000",
        "name": "Pilekrogen",
        "lat": 57.63573958,
        "long": 12.03877445
    },
    {
        "gid": "9021014012321000",
        "name": "Grankullen",
        "lat": 57.63394838,
        "long": 12.0405793
    },
    {
        "gid": "9021014012327000",
        "name": "Splintvedsgatan",
        "lat": 57.62390831,
        "long": 12.00924876
    },
    {
        "gid": "9021014012336000",
        "name": "Förbovallen",
        "lat": 57.6259733,
        "long": 12.02171091
    },
    {
        "gid": "9021014012409000",
        "name": "Hålsten",
        "lat": 57.64465279,
        "long": 12.04634517
    },
    {
        "gid": "9021014012510000",
        "name": "Enerbacksgatan",
        "lat": 57.66152136,
        "long": 12.02788501
    },
    {
        "gid": "9021014012635000",
        "name": "Bangårdsvägen",
        "lat": 57.61779427,
        "long": 12.04197748
    },
    {
        "gid": "9021014012668000",
        "name": "Tulebo gård",
        "lat": 57.61399412,
        "long": 12.09745254
    },
    {
        "gid": "9021014012711000",
        "name": "Lindome station",
        "lat": 57.57596708,
        "long": 12.07871715
    },
    {
        "gid": "9021014012735000",
        "name": "Bergavägen",
        "lat": 57.5749618,
        "long": 12.1009976
    },
    {
        "gid": "9021014012750000",
        "name": "Sagered",
        "lat": 57.59635033,
        "long": 12.08530066
    },
    {
        "gid": "9021014012752000",
        "name": "Espås",
        "lat": 57.59850279,
        "long": 12.09485436
    },
    {
        "gid": "9021014012833000",
        "name": "Porris västra",
        "lat": 57.58859369,
        "long": 12.12764316
    },
    {
        "gid": "9021014013228000",
        "name": "Nils Henrikssons väg",
        "lat": 57.73778286,
        "long": 12.10549967
    },
    {
        "gid": "9021014013310000",
        "name": "Kvastekulla",
        "lat": 57.73896837,
        "long": 12.13469587
    },
    {
        "gid": "9021014013322000",
        "name": "Slättenvägen",
        "lat": 57.72995623,
        "long": 12.12092669
    },
    {
        "gid": "9021014013640000",
        "name": "Vallhamra torg",
        "lat": 57.72091732,
        "long": 12.07128851
    },
    {
        "gid": "9021014013720000",
        "name": "Lexby",
        "lat": 57.74344478,
        "long": 12.11336645
    },
    {
        "gid": "9021014014001000",
        "name": "Kungälv resecentrum",
        "lat": 57.87175229,
        "long": 11.96833713
    },
    {
        "gid": "9021014014020000",
        "name": "Ekelöv västra",
        "lat": 57.89256712,
        "long": 11.86546778
    },
    {
        "gid": "9021014014042000",
        "name": "Gullbringa västra",
        "lat": 57.89069289,
        "long": 11.76959634
    },
    {
        "gid": "9021014014060000",
        "name": "Bufferöd",
        "lat": 57.90982888,
        "long": 11.86274745
    },
    {
        "gid": "9021014014111000",
        "name": "Kexbageriet",
        "lat": 57.86868476,
        "long": 11.9833028
    },
    {
        "gid": "9021014014140000",
        "name": "Christian IV:s väg",
        "lat": 57.86874191,
        "long": 11.95222999
    },
    {
        "gid": "9021014014185000",
        "name": "Ormo",
        "lat": 57.8440494,
        "long": 11.89505474
    },
    {
        "gid": "9021014012831000",
        "name": "Herrgården",
        "lat": 57.594873,
        "long": 12.14455553
    },
    {
        "gid": "9021014012842000",
        "name": "Djupedala",
        "lat": 57.62303033,
        "long": 12.18217906
    },
    {
        "gid": "9021014012844000",
        "name": "Väremyst",
        "lat": 57.6136928,
        "long": 12.17896683
    },
    {
        "gid": "9021014012845000",
        "name": "Mossvägen",
        "lat": 57.61100725,
        "long": 12.17944297
    },
    {
        "gid": "9021014012847000",
        "name": "Benarebyvägen",
        "lat": 57.60516451,
        "long": 12.17617892
    },
    {
        "gid": "9021014012852000",
        "name": "Ivers",
        "lat": 57.6059624,
        "long": 12.14053775
    },
    {
        "gid": "9021014012860000",
        "name": "Ekered",
        "lat": 57.6021997,
        "long": 12.1181317
    },
    {
        "gid": "9021014013111000",
        "name": "Mellanvägen",
        "lat": 57.73117196,
        "long": 12.05965581
    },
    {
        "gid": "9021014013113000",
        "name": "Skolvägen",
        "lat": 57.73185066,
        "long": 12.07032036
    },
    {
        "gid": "9021014013121000",
        "name": "Allévägen",
        "lat": 57.73277483,
        "long": 12.07491665
    },
    {
        "gid": "9021014013123000",
        "name": "Magnusvägen",
        "lat": 57.7320985,
        "long": 12.08182649
    },
    {
        "gid": "9021014013130000",
        "name": "Frejaplan",
        "lat": 57.72832164,
        "long": 12.08095478
    },
    {
        "gid": "9021014013220000",
        "name": "Finngösa",
        "lat": 57.73565112,
        "long": 12.09483182
    },
    {
        "gid": "9021014013410000",
        "name": "Jons väg",
        "lat": 57.74561574,
        "long": 12.17413862
    },
    {
        "gid": "9021014013421000",
        "name": "Stärtered",
        "lat": 57.74285494,
        "long": 12.15040493
    },
    {
        "gid": "9021014013511000",
        "name": "Örjansvägen",
        "lat": 57.70881868,
        "long": 12.14754019
    },
    {
        "gid": "9021014013530000",
        "name": "Solbacken",
        "lat": 57.69239418,
        "long": 12.12154244
    },
    {
        "gid": "9021014013535000",
        "name": "Isfabriken",
        "lat": 57.68837916,
        "long": 12.11021468
    },
    {
        "gid": "9021014013610000",
        "name": "Persplatsen",
        "lat": 57.72095376,
        "long": 12.06549064
    },
    {
        "gid": "9021014013723000",
        "name": "Lexbydalsvägen",
        "lat": 57.746689,
        "long": 12.13790022
    },
    {
        "gid": "9021014014011000",
        "name": "Vävra övre",
        "lat": 57.89640579,
        "long": 11.8135302
    },
    {
        "gid": "9021014014041000",
        "name": "Gullbringa",
        "lat": 57.88901935,
        "long": 11.77624435
    },
    {
        "gid": "9021014014043000",
        "name": "Davids väg",
        "lat": 57.82610135,
        "long": 11.87570917
    },
    {
        "gid": "9021014014050000",
        "name": "Restads vägskäl",
        "lat": 57.90675055,
        "long": 11.84878187
    },
    {
        "gid": "9021014014051000",
        "name": "Mellan-Restad",
        "lat": 57.90838981,
        "long": 11.85616932
    },
    {
        "gid": "9021014014053000",
        "name": "Ytter-Restad",
        "lat": 57.91085218,
        "long": 11.82653671
    },
    {
        "gid": "9021014014085000",
        "name": "Snusfabriken",
        "lat": 57.88741119,
        "long": 11.94781427
    },
    {
        "gid": "9021014014109000",
        "name": "Mimers hus",
        "lat": 57.87473848,
        "long": 11.97596367
    },
    {
        "gid": "9021014014172000",
        "name": "Trankärrsvägen",
        "lat": 57.88453173,
        "long": 11.98867379
    },
    {
        "gid": "9021014014183000",
        "name": "Dotorp",
        "lat": 57.83971981,
        "long": 11.83950743
    },
    {
        "gid": "9021014014190000",
        "name": "Stora Lycke",
        "lat": 57.87519949,
        "long": 11.72518164
    },
    {
        "gid": "9021014014194000",
        "name": "Bollestad",
        "lat": 57.89332666,
        "long": 11.90520125
    },
    {
        "gid": "9021014014212000",
        "name": "Kode station",
        "lat": 57.94414508,
        "long": 11.85075797
    },
    {
        "gid": "9021014014240000",
        "name": "Aröd",
        "lat": 57.95540863,
        "long": 11.77239754
    },
    {
        "gid": "9021014014243000",
        "name": "Lid",
        "lat": 57.95377595,
        "long": 11.79239401
    },
    {
        "gid": "9021014014263000",
        "name": "Åseby södra",
        "lat": 57.92284776,
        "long": 11.79348234
    },
    {
        "gid": "9021014014267000",
        "name": "Solberga västergård",
        "lat": 57.93790992,
        "long": 11.80837887
    },
    {
        "gid": "9021014014276000",
        "name": "Marieberg",
        "lat": 57.89079274,
        "long": 12.02818106
    },
    {
        "gid": "9021014014304000",
        "name": "Alekärr",
        "lat": 57.93087264,
        "long": 12.00352836
    },
    {
        "gid": "9021014014306000",
        "name": "Lycke kyrka",
        "lat": 57.87612265,
        "long": 11.72125093
    },
    {
        "gid": "9021014014307000",
        "name": "Kristiansborgsvägen",
        "lat": 57.8855717,
        "long": 11.7192426
    },
    {
        "gid": "9021014014331000",
        "name": "Nolby norra",
        "lat": 57.95349641,
        "long": 11.91130967
    },
    {
        "gid": "9021014014349000",
        "name": "Branehög",
        "lat": 57.92846281,
        "long": 11.82952646
    },
    {
        "gid": "9021014014353000",
        "name": "Myrebacka södra",
        "lat": 57.9137284,
        "long": 11.91661803
    },
    {
        "gid": "9021014014363000",
        "name": "Grokareby",
        "lat": 57.89765112,
        "long": 11.91781031
    },
    {
        "gid": "9021014014370000",
        "name": "Solberga kyrka",
        "lat": 57.94058096,
        "long": 11.81667667
    },
    {
        "gid": "9021014014372000",
        "name": "Ulvesund södra",
        "lat": 57.83519297,
        "long": 11.89162128
    },
    {
        "gid": "9021014014398000",
        "name": "Dotorp södra",
        "lat": 57.84773684,
        "long": 11.83300555
    },
    {
        "gid": "9021014014403000",
        "name": "Vallervägen",
        "lat": 57.95021593,
        "long": 12.05861139
    },
    {
        "gid": "9021014014411000",
        "name": "Harestad västra",
        "lat": 57.81956455,
        "long": 11.83108203
    },
    {
        "gid": "9021014014423000",
        "name": "Kornhall",
        "lat": 57.81902195,
        "long": 11.87620419
    },
    {
        "gid": "9021014014424000",
        "name": "Torebyvägen",
        "lat": 57.82256707,
        "long": 11.85672704
    },
    {
        "gid": "9021014014511000",
        "name": "Kärnavägen",
        "lat": 57.8456741,
        "long": 11.79669197
    },
    {
        "gid": "9021014014540000",
        "name": "Tronnum",
        "lat": 57.82417934,
        "long": 11.79122175
    },
    {
        "gid": "9021014014542000",
        "name": "Kärrhed östra",
        "lat": 57.81710985,
        "long": 11.78536559
    },
    {
        "gid": "9021014014553000",
        "name": "Burås",
        "lat": 57.8224721,
        "long": 11.7506732
    },
    {
        "gid": "9021014014574000",
        "name": "Tofta vägskäl",
        "lat": 57.84303005,
        "long": 11.73322868
    },
    {
        "gid": "9021014014580000",
        "name": "Kovikshamns brygga",
        "lat": 57.84142415,
        "long": 11.68452696
    },
    {
        "gid": "9021014014595000",
        "name": "Brunnefjäll",
        "lat": 57.83881143,
        "long": 11.72927939
    },
    {
        "gid": "9021014014612000",
        "name": "Tjuvkil gamla bussgaraget",
        "lat": 57.89946791,
        "long": 11.72062587
    },
    {
        "gid": "9021014014613000",
        "name": "Tjuvkils vägskäl",
        "lat": 57.89849732,
        "long": 11.72724774
    },
    {
        "gid": "9021014014614000",
        "name": "Stenskärsvägen",
        "lat": 57.89474121,
        "long": 11.7398614
    },
    {
        "gid": "9021014014741000",
        "name": "Hällebergsgatan",
        "lat": 57.86251934,
        "long": 11.91086674
    },
    {
        "gid": "9021014014829000",
        "name": "Björkenäs",
        "lat": 57.90757463,
        "long": 11.95284033
    },
    {
        "gid": "9021014001025000",
        "name": "Alelyckan",
        "lat": 57.75306275,
        "long": 12.01117336
    },
    {
        "gid": "9021014001035000",
        "name": "Donsö",
        "lat": 57.59977033,
        "long": 11.79398831
    },
    {
        "gid": "9021014001049000",
        "name": "Brännö Rödsten",
        "lat": 57.64852529,
        "long": 11.78552863
    },
    {
        "gid": "9021014001080000",
        "name": "Angereds Kyrka",
        "lat": 57.78829825,
        "long": 12.09596855
    },
    {
        "gid": "9021014001330000",
        "name": "Rya Skog",
        "lat": 57.69867393,
        "long": 11.88253425
    },
    {
        "gid": "9021014001350000",
        "name": "Bergegården",
        "lat": 57.74302708,
        "long": 11.7857291
    },
    {
        "gid": "9021014001360000",
        "name": "Berghöjdsgatan",
        "lat": 57.74425718,
        "long": 11.95246645
    },
    {
        "gid": "9021014001380000",
        "name": "Bergsgårdsvägen",
        "lat": 57.76713652,
        "long": 11.93109556
    },
    {
        "gid": "9021014001450000",
        "name": "Beväringsgatan",
        "lat": 57.73986486,
        "long": 12.02856487
    },
    {
        "gid": "9021014001490000",
        "name": "Björkrisvägen",
        "lat": 57.74002792,
        "long": 11.97361207
    },
    {
        "gid": "9021014001500000",
        "name": "Björkuddsgatan",
        "lat": 57.67963247,
        "long": 11.99068108
    },
    {
        "gid": "9021014001580000",
        "name": "Blåsutgatan",
        "lat": 57.6928323,
        "long": 11.922565
    },
    {
        "gid": "9021014001585000",
        "name": "Bläsebogärdet",
        "lat": 57.77278094,
        "long": 12.02335382
    },
    {
        "gid": "9021014001630000",
        "name": "Bolsten",
        "lat": 57.84036924,
        "long": 11.93292134
    },
    {
        "gid": "9021014001675000",
        "name": "Bredfjällsgatan",
        "lat": 57.78201654,
        "long": 12.02932345
    },
    {
        "gid": "9021014001720000",
        "name": "Brungatan",
        "lat": 57.63433298,
        "long": 11.889697
    },
    {
        "gid": "9021014001760000",
        "name": "Brunnsparken",
        "lat": 57.70694042,
        "long": 11.96784532
    },
    {
        "gid": "9021014001800000",
        "name": "Bygdegården",
        "lat": 57.77183342,
        "long": 11.92205065
    },
    {
        "gid": "9021014001840000",
        "name": "Bäckedalsvägen",
        "lat": 57.73465197,
        "long": 11.94215067
    },
    {
        "gid": "9021014002340000",
        "name": "Fiskebäcks Hamn",
        "lat": 57.64573375,
        "long": 11.86112855
    },
    {
        "gid": "9021014002500000",
        "name": "Beatrice Lesslies Gata",
        "lat": 57.65825733,
        "long": 11.93968197
    },
    {
        "gid": "9021014002550000",
        "name": "F O Peterssons Gata",
        "lat": 57.65114444,
        "long": 11.93954357
    },
    {
        "gid": "9021014002665000",
        "name": "Gamla Torslandavägen",
        "lat": 57.73879794,
        "long": 11.79689477
    },
    {
        "gid": "9021014002730000",
        "name": "Godhemsgatan",
        "lat": 57.68486239,
        "long": 11.92599324
    },
    {
        "gid": "9021014002765000",
        "name": "Grevebergsgatan",
        "lat": 57.6472137,
        "long": 11.89008629
    },
    {
        "gid": "9021014002810000",
        "name": "Gråberget",
        "lat": 57.68946257,
        "long": 11.92481456
    },
    {
        "gid": "9021014002910000",
        "name": "Gunnesby Skola",
        "lat": 57.81569151,
        "long": 11.90899781
    },
    {
        "gid": "9021014003092000",
        "name": "Hamneviksvägen",
        "lat": 57.70290914,
        "long": 11.81835131
    },
    {
        "gid": "9021014003122000",
        "name": "Hantverksvägen",
        "lat": 57.6414338,
        "long": 11.94906037
    },
    {
        "gid": "9021014003130000",
        "name": "Hembygdsgatan",
        "lat": 57.72696014,
        "long": 11.77354594
    },
    {
        "gid": "9021014003170000",
        "name": "Hinsholmen",
        "lat": 57.66781436,
        "long": 11.86098067
    },
    {
        "gid": "9021014003264000",
        "name": "Hällmålningsvägen",
        "lat": 57.73118342,
        "long": 11.7408728
    },
    {
        "gid": "9021014003530000",
        "name": "Importgatan",
        "lat": 57.75196861,
        "long": 11.99608276
    },
    {
        "gid": "9021014003600000",
        "name": "Ivarsbergsmotet",
        "lat": 57.69969126,
        "long": 11.89758975
    },
    {
        "gid": "9021014003635000",
        "name": "Juteskärsgatan",
        "lat": 57.63922802,
        "long": 11.88116608
    },
    {
        "gid": "9021014003650000",
        "name": "Jättestensskolan",
        "lat": 57.72071114,
        "long": 11.90479348
    },
    {
        "gid": "9021014003710000",
        "name": "Kallhed",
        "lat": 57.78136816,
        "long": 11.83231189
    },
    {
        "gid": "9021014003800000",
        "name": "Kalshed",
        "lat": 57.79240883,
        "long": 11.90700121
    },
    {
        "gid": "9021014003940000",
        "name": "Komettorget",
        "lat": 57.75097974,
        "long": 12.07164651
    },
    {
        "gid": "9021014003960000",
        "name": "Torslandakrysset",
        "lat": 57.71443394,
        "long": 11.78287464
    },
    {
        "gid": "9021014003973000",
        "name": "Billdals Kyrka",
        "lat": 57.57502656,
        "long": 11.94222644
    },
    {
        "gid": "9021014004140000",
        "name": "Kviberg",
        "lat": 57.73646617,
        "long": 12.02506282
    },
    {
        "gid": "9021014004152000",
        "name": "Säve Flygplatsväg",
        "lat": 57.78218219,
        "long": 11.86212501
    },
    {
        "gid": "9021014004265000",
        "name": "Kärra Centrum",
        "lat": 57.79380056,
        "long": 11.99129232
    },
    {
        "gid": "9021014004315000",
        "name": "Lantmannagatan",
        "lat": 57.71693195,
        "long": 11.92970572
    },
    {
        "gid": "9021014004457000",
        "name": "Lillekärr Södra",
        "lat": 57.78923464,
        "long": 11.99052815
    },
    {
        "gid": "9021014004515000",
        "name": "Lisa Sass Gata",
        "lat": 57.74973274,
        "long": 11.99011563
    },
    {
        "gid": "9021014004595000",
        "name": "Långrevsvägen",
        "lat": 57.70994133,
        "long": 11.73662009
    },
    {
        "gid": "9021014004755000",
        "name": "Marken Norra",
        "lat": 57.79419032,
        "long": 12.21674106
    },
    {
        "gid": "9021014004805000",
        "name": "Mejramgatan",
        "lat": 57.81613548,
        "long": 12.03325252
    },
    {
        "gid": "9021014004808000",
        "name": "Merkuriusgatan",
        "lat": 57.76175549,
        "long": 12.07047152
    },
    {
        "gid": "9021014004810000",
        "name": "Mildvädersgatan",
        "lat": 57.71562605,
        "long": 11.89095166
    },
    {
        "gid": "9021014004890000",
        "name": "Stora Mysternavägen",
        "lat": 57.80902497,
        "long": 11.99694428
    },
    {
        "gid": "9021014004970000",
        "name": "Torslanda Torg",
        "lat": 57.72248045,
        "long": 11.76742674
    },
    {
        "gid": "9021014005125000",
        "name": "Näsbovägen",
        "lat": 57.61955402,
        "long": 11.90020768
    },
    {
        "gid": "9021014005275000",
        "name": "Persiljegatan",
        "lat": 57.82091797,
        "long": 12.03368471
    },
    {
        "gid": "9021014005454000",
        "name": "Rappedalen",
        "lat": 57.80092248,
        "long": 12.05263277
    },
    {
        "gid": "9021014005465000",
        "name": "Regnbågsgatan",
        "lat": 57.71150094,
        "long": 11.94111514
    },
    {
        "gid": "9021014005763000",
        "name": "Seminariegatan",
        "lat": 57.69223648,
        "long": 11.95737611
    },
    {
        "gid": "9021014005930000",
        "name": "Skräddaregården",
        "lat": 57.7458561,
        "long": 11.82839432
    },
    {
        "gid": "9021014005955000",
        "name": "Skårs Kyrka",
        "lat": 57.69061605,
        "long": 12.00584823
    },
    {
        "gid": "9021014005960000",
        "name": "Skårsplatsen",
        "lat": 57.69486517,
        "long": 12.00955944
    },
    {
        "gid": "9021014006030000",
        "name": "Slottsberget",
        "lat": 57.70313571,
        "long": 11.92749957
    },
    {
        "gid": "9021014014189000",
        "name": "Bremnäs",
        "lat": 57.86864721,
        "long": 11.72206647
    },
    {
        "gid": "9021014014192000",
        "name": "Mariebergsliden",
        "lat": 57.87820106,
        "long": 12.02242154
    },
    {
        "gid": "9021014014200000",
        "name": "Skåra",
        "lat": 57.90950709,
        "long": 11.80159561
    },
    {
        "gid": "9021014014213000",
        "name": "Kode skola",
        "lat": 57.94370125,
        "long": 11.84591206
    },
    {
        "gid": "9021014014220000",
        "name": "Ingetorps sjö",
        "lat": 57.93215209,
        "long": 11.88965833
    },
    {
        "gid": "9021014014229000",
        "name": "Grankärr",
        "lat": 58.00785594,
        "long": 12.10660446
    },
    {
        "gid": "9021014014239000",
        "name": "Aröd Jacobsvägen",
        "lat": 57.95144347,
        "long": 11.76245784
    },
    {
        "gid": "9021014014244000",
        "name": "Prästbol",
        "lat": 57.95377153,
        "long": 11.79898838
    },
    {
        "gid": "9021014014246000",
        "name": "Björfjäll",
        "lat": 57.95141392,
        "long": 11.94935728
    },
    {
        "gid": "9021014014260000",
        "name": "Kåröd",
        "lat": 57.92842067,
        "long": 11.8167065
    },
    {
        "gid": "9021014014266000",
        "name": "Solberga övergård",
        "lat": 57.93593077,
        "long": 11.80187955
    },
    {
        "gid": "9021014014273000",
        "name": "Ödsmåls mosse",
        "lat": 57.91786573,
        "long": 11.79445037
    },
    {
        "gid": "9021014014275000",
        "name": "Håveled",
        "lat": 57.8813549,
        "long": 12.01703162
    },
    {
        "gid": "9021014014279000",
        "name": "Lundby södra",
        "lat": 57.92560799,
        "long": 11.90912868
    },
    {
        "gid": "9021014014280000",
        "name": "Lilla Ödsmål",
        "lat": 57.91980498,
        "long": 11.78015597
    },
    {
        "gid": "9021014014312000",
        "name": "Marstrandsön",
        "lat": 57.88573674,
        "long": 11.58515916
    },
    {
        "gid": "9021014014347000",
        "name": "Solberga",
        "lat": 57.94083328,
        "long": 11.81347684
    },
    {
        "gid": "9021014014348000",
        "name": "Mjölkpallen",
        "lat": 57.93432875,
        "long": 11.84310187
    },
    {
        "gid": "9021014014360000",
        "name": "Källeröd",
        "lat": 57.92307193,
        "long": 11.96532743
    },
    {
        "gid": "9021014014368000",
        "name": "Restad",
        "lat": 57.90541483,
        "long": 11.84856121
    },
    {
        "gid": "9021014014376000",
        "name": "Sjöhed norra",
        "lat": 57.80310059,
        "long": 11.84956572
    },
    {
        "gid": "9021014014389000",
        "name": "Toreby östra",
        "lat": 57.82658894,
        "long": 11.84567844
    },
    {
        "gid": "9021014014394000",
        "name": "Lefstad",
        "lat": 57.84071059,
        "long": 11.8015994
    },
    {
        "gid": "9021014014399000",
        "name": "Toreby mosse",
        "lat": 57.83402745,
        "long": 11.85855926
    },
    {
        "gid": "9021014014410000",
        "name": "Harestads kyrka",
        "lat": 57.8176966,
        "long": 11.83798346
    },
    {
        "gid": "9021014014573000",
        "name": "Hållsungavägen",
        "lat": 57.8447756,
        "long": 11.74272947
    },
    {
        "gid": "9021014014575000",
        "name": "Sundhammarvägen",
        "lat": 57.84414643,
        "long": 11.73120586
    },
    {
        "gid": "9021014014593000",
        "name": "Åkerhög västra",
        "lat": 57.83302179,
        "long": 11.71013879
    },
    {
        "gid": "9021014014610000",
        "name": "Saltskärsvägen",
        "lat": 57.89781381,
        "long": 11.73072004
    },
    {
        "gid": "9021014014616000",
        "name": "Gethagen",
        "lat": 57.89097796,
        "long": 11.75119023
    },
    {
        "gid": "9021014014631000",
        "name": "Heavägen",
        "lat": 57.87778296,
        "long": 11.72881042
    },
    {
        "gid": "9021014014634000",
        "name": "Skräddarön",
        "lat": 57.88701902,
        "long": 11.72203034
    },
    {
        "gid": "9021014014635000",
        "name": "Sörängen",
        "lat": 57.89016619,
        "long": 11.73148239
    },
    {
        "gid": "9021014014721000",
        "name": "Truckgatan",
        "lat": 57.87179051,
        "long": 11.94296448
    },
    {
        "gid": "9021014014726000",
        "name": "Rattgatan",
        "lat": 57.88120991,
        "long": 11.94334577
    },
    {
        "gid": "9021014014738000",
        "name": "Bilgatan västra",
        "lat": 57.8773246,
        "long": 11.93243972
    },
    {
        "gid": "9021014014744000",
        "name": "Stället",
        "lat": 57.86951751,
        "long": 11.90372206
    },
    {
        "gid": "9021014014751000",
        "name": "Guddeby",
        "lat": 57.87470871,
        "long": 11.90393364
    },
    {
        "gid": "9021014014762000",
        "name": "Kuröd",
        "lat": 57.85682764,
        "long": 11.8642607
    },
    {
        "gid": "9021014014763000",
        "name": "Trädal östra",
        "lat": 57.85737707,
        "long": 11.84799174
    },
    {
        "gid": "9021014014807000",
        "name": "Prästvägen",
        "lat": 57.91215816,
        "long": 11.9908863
    },
    {
        "gid": "9021014014817000",
        "name": "Alekärrsvägen",
        "lat": 57.92163084,
        "long": 12.01639273
    },
    {
        "gid": "9021014014823000",
        "name": "Barkeröd",
        "lat": 57.91891791,
        "long": 12.0057578
    },
    {
        "gid": "9021014014828000",
        "name": "Löstorpsvägen",
        "lat": 57.90654413,
        "long": 11.94698435
    },
    {
        "gid": "9021014014844000",
        "name": "Norra Valler",
        "lat": 57.94984877,
        "long": 12.07150534
    },
    {
        "gid": "9021014014860000",
        "name": "Norrmannebo kapell",
        "lat": 57.98187241,
        "long": 12.11284606
    },
    {
        "gid": "9021014014915000",
        "name": "Ringby västra",
        "lat": 57.91860461,
        "long": 11.9275669
    },
    {
        "gid": "9021014014961000",
        "name": "Färdevägen",
        "lat": 57.87287207,
        "long": 11.99234768
    },
    {
        "gid": "9021014015013000",
        "name": "Borealis kracker",
        "lat": 58.08215784,
        "long": 11.8301999
    },
    {
        "gid": "9021014015041000",
        "name": "Solvändevägen",
        "lat": 58.06062646,
        "long": 11.86811064
    },
    {
        "gid": "9021014015052000",
        "name": "Stenungsund Arena",
        "lat": 58.05671917,
        "long": 11.82324832
    },
    {
        "gid": "9021014015053000",
        "name": "Stenungsön",
        "lat": 58.06532395,
        "long": 11.80506537
    },
    {
        "gid": "9021014015054000",
        "name": "Nösnässkolan",
        "lat": 58.05672129,
        "long": 11.82765672
    },
    {
        "gid": "9021014015067000",
        "name": "Badhustorget",
        "lat": 58.07237341,
        "long": 11.81593643
    },
    {
        "gid": "9021014015079000",
        "name": "Bergegård",
        "lat": 58.03849763,
        "long": 11.82998444
    },
    {
        "gid": "9021014015086000",
        "name": "Hyvelvägen",
        "lat": 58.06318962,
        "long": 11.87402517
    },
    {
        "gid": "9021014015136000",
        "name": "Rödsvägen",
        "lat": 58.13715734,
        "long": 11.86516154
    },
    {
        "gid": "9021014015145000",
        "name": "Stora Åregren",
        "lat": 58.1189197,
        "long": 11.8940939
    },
    {
        "gid": "9021014015151000",
        "name": "Lunna",
        "lat": 58.11213107,
        "long": 11.88220312
    },
    {
        "gid": "9021014015156000",
        "name": "Bräcke",
        "lat": 58.11353015,
        "long": 11.89790868
    },
    {
        "gid": "9021014015161000",
        "name": "AGA Vattenfall",
        "lat": 58.08655221,
        "long": 11.83125234
    },
    {
        "gid": "9021014015173000",
        "name": "Strandkärr tunnel",
        "lat": 58.03081087,
        "long": 11.83098723
    },
    {
        "gid": "9021014015195000",
        "name": "Sävelycke västra",
        "lat": 57.97657122,
        "long": 11.8099301
    },
    {
        "gid": "9021014015207000",
        "name": "Stenungsund vårdcentral",
        "lat": 58.06606582,
        "long": 11.81853364
    },
    {
        "gid": "9021014014832000",
        "name": "Honeröd",
        "lat": 57.94272222,
        "long": 12.04861148
    },
    {
        "gid": "9021014014951000",
        "name": "Ulvegärde",
        "lat": 57.88898394,
        "long": 11.955292
    },
    {
        "gid": "9021014015019000",
        "name": "Hallerna ängen",
        "lat": 58.04774813,
        "long": 11.85104931
    },
    {
        "gid": "9021014015020000",
        "name": "Brudhammar",
        "lat": 58.06642972,
        "long": 11.83529234
    },
    {
        "gid": "9021014015029000",
        "name": "Stripplekärr",
        "lat": 58.09710059,
        "long": 11.88685996
    },
    {
        "gid": "9021014015032000",
        "name": "Hasselbacken",
        "lat": 58.06261521,
        "long": 11.84600884
    },
    {
        "gid": "9021014015072000",
        "name": "Bollstensvägen",
        "lat": 58.05767546,
        "long": 11.87091257
    },
    {
        "gid": "9021014015080000",
        "name": "Kärr",
        "lat": 58.06059913,
        "long": 11.88861472
    },
    {
        "gid": "9021014015081000",
        "name": "Järnklätt",
        "lat": 58.06142239,
        "long": 11.90431385
    },
    {
        "gid": "9021014015088000",
        "name": "Hallernaskolan",
        "lat": 58.0492854,
        "long": 11.84199698
    },
    {
        "gid": "9021014015115000",
        "name": "Gamleberg",
        "lat": 58.12479366,
        "long": 11.8580092
    },
    {
        "gid": "9021014015120000",
        "name": "Kolhättans färjeläge",
        "lat": 58.13414515,
        "long": 11.84435546
    },
    {
        "gid": "9021014015127000",
        "name": "ICA Kvantum",
        "lat": 58.07516441,
        "long": 11.8265622
    },
    {
        "gid": "9021014015132000",
        "name": "Gullborgavägen",
        "lat": 58.15402653,
        "long": 11.88639181
    },
    {
        "gid": "9021014015140000",
        "name": "Käderöd",
        "lat": 58.1372895,
        "long": 11.90624142
    },
    {
        "gid": "9021014015164000",
        "name": "Anvik",
        "lat": 58.01360507,
        "long": 11.97857505
    },
    {
        "gid": "9021014015189000",
        "name": "Rossås",
        "lat": 58.03860411,
        "long": 11.96631355
    },
    {
        "gid": "9021014015190000",
        "name": "Svenshagen",
        "lat": 58.03757356,
        "long": 11.94503188
    },
    {
        "gid": "9021014015196000",
        "name": "Råhagen",
        "lat": 58.02560723,
        "long": 11.93478762
    },
    {
        "gid": "9021014015245000",
        "name": "Intaget",
        "lat": 58.09870857,
        "long": 11.9627523
    },
    {
        "gid": "9021014015249000",
        "name": "Sågen",
        "lat": 58.12222522,
        "long": 11.9558239
    },
    {
        "gid": "9021014015255000",
        "name": "Lilla Kamperöd",
        "lat": 58.07113565,
        "long": 12.00717828
    },
    {
        "gid": "9021014015276000",
        "name": "Bua",
        "lat": 58.13151498,
        "long": 11.93357133
    },
    {
        "gid": "9021014015323000",
        "name": "Jörlanda skola",
        "lat": 57.98512719,
        "long": 11.82893406
    },
    {
        "gid": "9021014015332000",
        "name": "Torödsvägen",
        "lat": 57.99133699,
        "long": 11.82997569
    },
    {
        "gid": "9021014015340000",
        "name": "Håby",
        "lat": 57.97229292,
        "long": 11.83617539
    },
    {
        "gid": "9021014015349000",
        "name": "Kårtvet",
        "lat": 57.98635842,
        "long": 11.83686346
    },
    {
        "gid": "9021014015359000",
        "name": "Ålevattnet",
        "lat": 58.00995007,
        "long": 11.97265203
    },
    {
        "gid": "9021014015411000",
        "name": "Myggenäs centrum",
        "lat": 58.06360877,
        "long": 11.75081191
    },
    {
        "gid": "9021014015417000",
        "name": "Höviksnäs servicehus",
        "lat": 58.03419102,
        "long": 11.74031645
    },
    {
        "gid": "9021014015424000",
        "name": "Nordgård nedre",
        "lat": 58.09319379,
        "long": 11.73973467
    },
    {
        "gid": "9021014015432000",
        "name": "Fjällebro",
        "lat": 58.05313458,
        "long": 11.70179698
    },
    {
        "gid": "9021014015444000",
        "name": "Lerdal",
        "lat": 58.01830171,
        "long": 11.68512004
    },
    {
        "gid": "9021014015452000",
        "name": "Häggvalle damm",
        "lat": 58.0387428,
        "long": 11.73485117
    },
    {
        "gid": "9021014015454000",
        "name": "Sjötången",
        "lat": 58.0482797,
        "long": 11.75171305
    },
    {
        "gid": "9021014015477000",
        "name": "Almösundsvägen",
        "lat": 58.06658633,
        "long": 11.74492701
    },
    {
        "gid": "9021014015478000",
        "name": "Tollebyvägen",
        "lat": 57.96649648,
        "long": 11.59592961
    },
    {
        "gid": "9021014015484000",
        "name": "Säby",
        "lat": 58.01953385,
        "long": 11.59668161
    },
    {
        "gid": "9021014015496000",
        "name": "Klevaskog",
        "lat": 58.01796521,
        "long": 11.75359972
    },
    {
        "gid": "9021014015515000",
        "name": "Tjörns ishall",
        "lat": 57.9436956,
        "long": 11.5760312
    },
    {
        "gid": "9021014015540000",
        "name": "Rönnängs gård",
        "lat": 57.94056754,
        "long": 11.5971032
    },
    {
        "gid": "9021014015561000",
        "name": "Rösselviksvägen",
        "lat": 57.98283646,
        "long": 11.6523552
    },
    {
        "gid": "9021014015580000",
        "name": "Olovsvik",
        "lat": 58.05458353,
        "long": 11.53282601
    },
    {
        "gid": "9021014015630000",
        "name": "Sibräcka",
        "lat": 58.00500575,
        "long": 11.61411473
    },
    {
        "gid": "9021014015661000",
        "name": "Vingen",
        "lat": 58.04433292,
        "long": 11.67582567
    },
    {
        "gid": "9021014015663000",
        "name": "Mölnefossa",
        "lat": 58.03442271,
        "long": 11.66191805
    },
    {
        "gid": "9021014015671000",
        "name": "Röra korsväg",
        "lat": 58.04217732,
        "long": 11.64780355
    },
    {
        "gid": "9021014015681000",
        "name": "Långekärr västra",
        "lat": 58.03199495,
        "long": 11.54575916
    },
    {
        "gid": "9021014015683000",
        "name": "Tådås",
        "lat": 58.03627288,
        "long": 11.5773108
    },
    {
        "gid": "9021014015691000",
        "name": "Linneviken",
        "lat": 58.0179604,
        "long": 11.52160184
    },
    {
        "gid": "9021014015721000",
        "name": "Tuvesvik",
        "lat": 58.17497587,
        "long": 11.41582958
    },
    {
        "gid": "9021014015740000",
        "name": "Hälleviksstrands brygga",
        "lat": 58.12308675,
        "long": 11.44369622
    },
    {
        "gid": "9021014015743000",
        "name": "Hällevik",
        "lat": 58.13297795,
        "long": 11.45152982
    },
    {
        "gid": "9021014015760000",
        "name": "Edshultshall norra",
        "lat": 58.11167466,
        "long": 11.46808669
    },
    {
        "gid": "9021014015762000",
        "name": "Barrevik",
        "lat": 58.10684369,
        "long": 11.4741183
    },
    {
        "gid": "9021014015775000",
        "name": "Övre Tången",
        "lat": 58.09034507,
        "long": 11.48571213
    },
    {
        "gid": "9021014015791000",
        "name": "Vrångevatten",
        "lat": 58.21634205,
        "long": 11.59249771
    },
    {
        "gid": "9021014015821000",
        "name": "Söbben",
        "lat": 58.26919262,
        "long": 11.69183813
    },
    {
        "gid": "9021014015824000",
        "name": "Edet",
        "lat": 58.29228812,
        "long": 11.70383237
    },
    {
        "gid": "9021014015827000",
        "name": "Henåns skola",
        "lat": 58.2334041,
        "long": 11.66881008
    },
    {
        "gid": "9021014015828000",
        "name": "Boxvike gård",
        "lat": 58.11315889,
        "long": 11.49284058
    },
    {
        "gid": "9021014015840000",
        "name": "Stenshult",
        "lat": 58.28070718,
        "long": 11.71624009
    },
    {
        "gid": "9021014015845000",
        "name": "Grindsbyvattnet",
        "lat": 58.23744294,
        "long": 11.75616967
    },
    {
        "gid": "9021014015856000",
        "name": "Krossekärr",
        "lat": 58.23377687,
        "long": 11.76223042
    },
    {
        "gid": "9021014006090000",
        "name": "Smörgatan",
        "lat": 57.68099912,
        "long": 12.01078622
    },
    {
        "gid": "9021014006140000",
        "name": "Solrosgatan",
        "lat": 57.71639175,
        "long": 12.02523318
    },
    {
        "gid": "9021014006220000",
        "name": "Stena Metall",
        "lat": 57.72701619,
        "long": 11.9880388
    },
    {
        "gid": "9021014006260000",
        "name": "Stigbergstorget",
        "lat": 57.69896759,
        "long": 11.93500431
    },
    {
        "gid": "9021014006300000",
        "name": "Stora Arödsgatan",
        "lat": 57.73829855,
        "long": 11.95584184
    },
    {
        "gid": "9021014006323000",
        "name": "Stora Åvägen",
        "lat": 57.64025943,
        "long": 11.95142161
    },
    {
        "gid": "9021014006485000",
        "name": "Svingeln Södra",
        "lat": 57.71033331,
        "long": 11.99061764
    },
    {
        "gid": "9021014006500000",
        "name": "Synhållsgatan",
        "lat": 57.66404905,
        "long": 11.93500095
    },
    {
        "gid": "9021014006550000",
        "name": "Sägengatan",
        "lat": 57.74595239,
        "long": 11.97743662
    },
    {
        "gid": "9021014006700000",
        "name": "Temperaturgatan",
        "lat": 57.73284268,
        "long": 11.89552279
    },
    {
        "gid": "9021014006730000",
        "name": "Timber Trading",
        "lat": 57.74472544,
        "long": 11.99498627
    },
    {
        "gid": "9021014006790000",
        "name": "Tolvskillingsgatan",
        "lat": 57.67570351,
        "long": 11.91307914
    },
    {
        "gid": "9021014007015000",
        "name": "Trollängen",
        "lat": 57.63022169,
        "long": 11.93219
    },
    {
        "gid": "9021014007040000",
        "name": "Trädet",
        "lat": 57.79059739,
        "long": 11.88662317
    },
    {
        "gid": "9021014007050000",
        "name": "Spåntorget",
        "lat": 57.71589235,
        "long": 12.05537033
    },
    {
        "gid": "9021014007070000",
        "name": "Trämjölsfabriken",
        "lat": 57.75550422,
        "long": 11.99546975
    },
    {
        "gid": "9021014007172000",
        "name": "Ullevi Södra",
        "lat": 57.70413328,
        "long": 11.98502093
    },
    {
        "gid": "9021014007390000",
        "name": "Viadukten",
        "lat": 57.7290094,
        "long": 11.9977857
    },
    {
        "gid": "9021014007420000",
        "name": "Wieselgrensgatan",
        "lat": 57.72783639,
        "long": 11.93535053
    },
    {
        "gid": "9021014007470000",
        "name": "Virginsgatan",
        "lat": 57.71051915,
        "long": 12.023549
    },
    {
        "gid": "9021014007506000",
        "name": "Volvo Tuve L A",
        "lat": 57.75639856,
        "long": 11.88410224
    },
    {
        "gid": "9021014007585000",
        "name": "Västes Gata",
        "lat": 57.65562913,
        "long": 11.87742697
    },
    {
        "gid": "9021014007620000",
        "name": "Åkerberget",
        "lat": 57.64636699,
        "long": 11.88563261
    },
    {
        "gid": "9021014007880000",
        "name": "Östra Sjukhuset",
        "lat": 57.72226707,
        "long": 12.04814995
    },
    {
        "gid": "9021014009420000",
        "name": "Kalvemossen",
        "lat": 57.67689896,
        "long": 12.04013097
    },
    {
        "gid": "9021014011317000",
        "name": "Västervägen",
        "lat": 57.70863498,
        "long": 11.64104673
    },
    {
        "gid": "9021014011412000",
        "name": "Rödvägen",
        "lat": 57.69317045,
        "long": 11.65109117
    },
    {
        "gid": "9021014011417000",
        "name": "Hönö Klåva",
        "lat": 57.68239534,
        "long": 11.64441668
    },
    {
        "gid": "9021014011442000",
        "name": "Brevik",
        "lat": 57.68311365,
        "long": 11.66170304
    },
    {
        "gid": "9021014011448000",
        "name": "Åsvägen",
        "lat": 57.69030235,
        "long": 11.66194771
    },
    {
        "gid": "9021014011615000",
        "name": "Idrottsplatsen",
        "lat": 57.72836857,
        "long": 11.68236683
    },
    {
        "gid": "9021014011616000",
        "name": "Gröneviks färjeläge",
        "lat": 57.71291188,
        "long": 11.68939206
    },
    {
        "gid": "9021014011710000",
        "name": "Kalvsund",
        "lat": 57.71081841,
        "long": 11.68325169
    },
    {
        "gid": "9021014012112000",
        "name": "Storgatan",
        "lat": 57.65538258,
        "long": 12.01148637
    },
    {
        "gid": "9021014012114000",
        "name": "Mölndals bro",
        "lat": 57.65564023,
        "long": 12.01859115
    },
    {
        "gid": "9021014012141000",
        "name": "Krokslätts Fabriker",
        "lat": 57.67148665,
        "long": 12.01026124
    },
    {
        "gid": "9021014012162000",
        "name": "Gamla torget",
        "lat": 57.65644958,
        "long": 12.02662333
    },
    {
        "gid": "9021014012163000",
        "name": "Mölndals stadsmuseum",
        "lat": 57.6577016,
        "long": 12.03285908
    },
    {
        "gid": "9021014012258000",
        "name": "Bäckstensgatan",
        "lat": 57.65161764,
        "long": 11.9595218
    },
    {
        "gid": "9021014012272000",
        "name": "Soltorpsgatan",
        "lat": 57.67532778,
        "long": 11.99977845
    },
    {
        "gid": "9021014012312000",
        "name": "Rävekärrsgatan",
        "lat": 57.64126057,
        "long": 12.03160374
    },
    {
        "gid": "9021014012333000",
        "name": "Torrekulla",
        "lat": 57.61833237,
        "long": 12.04039275
    },
    {
        "gid": "9021014012412000",
        "name": "Fjällgatan",
        "lat": 57.65164736,
        "long": 12.03645514
    },
    {
        "gid": "9021014012512000",
        "name": "Brobergsgatan",
        "lat": 57.66397498,
        "long": 12.03170915
    },
    {
        "gid": "9021014012531000",
        "name": "Nötåsberget",
        "lat": 57.6646131,
        "long": 12.05168152
    },
    {
        "gid": "9021014012621000",
        "name": "Västra Kyrkvägen",
        "lat": 57.60581803,
        "long": 12.05100481
    },
    {
        "gid": "9021014012631000",
        "name": "Mor Annas väg",
        "lat": 57.60815854,
        "long": 12.03465628
    },
    {
        "gid": "9021014012644000",
        "name": "Kållered köpstad",
        "lat": 57.60464348,
        "long": 12.04574214
    },
    {
        "gid": "9021014012811000",
        "name": "Hällesåkersskolan",
        "lat": 57.60299503,
        "long": 12.18205615
    },
    {
        "gid": "9021014012822000",
        "name": "Kättered",
        "lat": 57.59823128,
        "long": 12.15318088
    },
    {
        "gid": "9021014012830000",
        "name": "Hassungared",
        "lat": 57.59344817,
        "long": 12.14076742
    },
    {
        "gid": "9021014012880000",
        "name": "Inseros",
        "lat": 57.60607537,
        "long": 12.25418033
    },
    {
        "gid": "9021014013110000",
        "name": "Gibsons väg",
        "lat": 57.73128412,
        "long": 12.06371272
    },
    {
        "gid": "9021014013127000",
        "name": "Åsvägen",
        "lat": 57.72695302,
        "long": 12.09099362
    },
    {
        "gid": "9021014013215000",
        "name": "Partille centrum",
        "lat": 57.73862192,
        "long": 12.10524774
    },
    {
        "gid": "9021014013330000",
        "name": "Furulund",
        "lat": 57.72454408,
        "long": 12.12757217
    },
    {
        "gid": "9021014013513000",
        "name": "Åstebo",
        "lat": 57.71668465,
        "long": 12.1376841
    },
    {
        "gid": "9021014013534000",
        "name": "Hålsjön",
        "lat": 57.69069736,
        "long": 12.11649129
    },
    {
        "gid": "9021014013710000",
        "name": "Artles torg",
        "lat": 57.7399757,
        "long": 12.09372855
    },
    {
        "gid": "9021014014014000",
        "name": "Båröd",
        "lat": 57.90101677,
        "long": 11.80495052
    },
    {
        "gid": "9021014014090000",
        "name": "Hermelingatan",
        "lat": 57.89307999,
        "long": 11.97059126
    },
    {
        "gid": "9021014014120000",
        "name": "Västra Parken",
        "lat": 57.87173174,
        "long": 11.97991018
    },
    {
        "gid": "9021014014173000",
        "name": "Tvibotten",
        "lat": 57.89572734,
        "long": 12.00373814
    },
    {
        "gid": "9021014014186000",
        "name": "Görrödsvägen",
        "lat": 57.85926577,
        "long": 11.81816457
    },
    {
        "gid": "9021014015212000",
        "name": "Härgusseröd",
        "lat": 58.07888249,
        "long": 11.94960996
    },
    {
        "gid": "9021014015242000",
        "name": "Sylväster",
        "lat": 58.09425718,
        "long": 11.97586065
    },
    {
        "gid": "9021014015247000",
        "name": "Skogen",
        "lat": 58.11606224,
        "long": 11.96044281
    },
    {
        "gid": "9021014015282000",
        "name": "Kalvhagen",
        "lat": 58.1272161,
        "long": 11.94955373
    },
    {
        "gid": "9021014015283000",
        "name": "Oskarshem",
        "lat": 58.12427517,
        "long": 11.95510533
    },
    {
        "gid": "9021014015285000",
        "name": "Huveröd",
        "lat": 58.13019936,
        "long": 11.97592195
    },
    {
        "gid": "9021014015289000",
        "name": "Amdal norra",
        "lat": 58.14341839,
        "long": 11.9766189
    },
    {
        "gid": "9021014015290000",
        "name": "Amdal",
        "lat": 58.14015056,
        "long": 11.97601238
    },
    {
        "gid": "9021014015310000",
        "name": "Stora Höga",
        "lat": 58.01621399,
        "long": 11.83205888
    },
    {
        "gid": "9021014015341000",
        "name": "Stenflaten",
        "lat": 57.97627587,
        "long": 11.82973359
    },
    {
        "gid": "9021014015369000",
        "name": "Källsnäs",
        "lat": 57.98772634,
        "long": 11.79566944
    },
    {
        "gid": "9021014015370000",
        "name": "Skäggstorp",
        "lat": 57.96163037,
        "long": 11.84293285
    },
    {
        "gid": "9021014015372000",
        "name": "Hallebäck",
        "lat": 57.97054977,
        "long": 11.79459884
    },
    {
        "gid": "9021014015377000",
        "name": "Gåre",
        "lat": 58.028216,
        "long": 11.86920185
    },
    {
        "gid": "9021014015414000",
        "name": "Kil",
        "lat": 58.06351603,
        "long": 11.71986837
    },
    {
        "gid": "9021014015419000",
        "name": "Vallhamn",
        "lat": 58.0147086,
        "long": 11.69695301
    },
    {
        "gid": "9021014015433000",
        "name": "Rosengård",
        "lat": 58.05657483,
        "long": 11.69408637
    },
    {
        "gid": "9021014015442000",
        "name": "Habborsby",
        "lat": 58.02273031,
        "long": 11.69502703
    },
    {
        "gid": "9021014015492000",
        "name": "Balkeröd",
        "lat": 58.01606243,
        "long": 11.73475149
    },
    {
        "gid": "9021014015499000",
        "name": "Hjälteby östra",
        "lat": 58.04890208,
        "long": 11.71225757
    },
    {
        "gid": "9021014015530000",
        "name": "Rönnängs brygga",
        "lat": 57.93553562,
        "long": 11.57577818
    },
    {
        "gid": "9021014015531000",
        "name": "Slänten",
        "lat": 57.93911684,
        "long": 11.58091308
    },
    {
        "gid": "9021014015535000",
        "name": "Åstol",
        "lat": 57.92407985,
        "long": 11.58900069
    },
    {
        "gid": "9021014015551000",
        "name": "Mölnebo",
        "lat": 57.95678403,
        "long": 11.62304516
    },
    {
        "gid": "9021014015553000",
        "name": "Tolleby",
        "lat": 57.9661964,
        "long": 11.60756173
    },
    {
        "gid": "9021014015575000",
        "name": "Åseby",
        "lat": 58.00566823,
        "long": 11.66947472
    },
    {
        "gid": "9021014015600000",
        "name": "Kommunhuset",
        "lat": 57.98597632,
        "long": 11.55061789
    },
    {
        "gid": "9021014015607000",
        "name": "Kroksdal",
        "lat": 57.98738436,
        "long": 11.56376874
    },
    {
        "gid": "9021014015618000",
        "name": "Stenkyrka kyrka",
        "lat": 58.01037047,
        "long": 11.62385364
    },
    {
        "gid": "9021014015623000",
        "name": "Morik",
        "lat": 57.96288605,
        "long": 11.57631424
    },
    {
        "gid": "9021014015637000",
        "name": "Klövedal Bö",
        "lat": 58.04033697,
        "long": 11.5381565
    },
    {
        "gid": "9021014015652000",
        "name": "Rävlanda",
        "lat": 58.00102658,
        "long": 11.66111908
    },
    {
        "gid": "9021014015657000",
        "name": "Hjälteby skola",
        "lat": 58.04683243,
        "long": 11.71112555
    },
    {
        "gid": "9021014015665000",
        "name": "Stordal",
        "lat": 58.0347463,
        "long": 11.6550752
    },
    {
        "gid": "9021014015682000",
        "name": "Basteröd",
        "lat": 58.03582528,
        "long": 11.56471033
    },
    {
        "gid": "9021014015714000",
        "name": "Gullberg",
        "lat": 58.17329804,
        "long": 11.46682127
    },
    {
        "gid": "9021014015734000",
        "name": "Håv",
        "lat": 58.15410648,
        "long": 11.5661633
    },
    {
        "gid": "9021014015776000",
        "name": "Vasseröd",
        "lat": 58.09264016,
        "long": 11.53863664
    },
    {
        "gid": "9021014015777000",
        "name": "Lalleröd",
        "lat": 58.09729776,
        "long": 11.55027295
    },
    {
        "gid": "9021014015789000",
        "name": "Ljungbacken",
        "lat": 58.11101977,
        "long": 11.55276743
    },
    {
        "gid": "9021014015795000",
        "name": "Morlanda brygga",
        "lat": 58.2014052,
        "long": 11.53884705
    },
    {
        "gid": "9021014015806000",
        "name": "Tången",
        "lat": 58.07916761,
        "long": 11.48297697
    },
    {
        "gid": "9021014015823000",
        "name": "Gåre torg",
        "lat": 58.28363706,
        "long": 11.69740132
    },
    {
        "gid": "9021014015831000",
        "name": "Fundeskärr",
        "lat": 58.22157527,
        "long": 11.61078691
    },
    {
        "gid": "9021014015843000",
        "name": "Rödstegen",
        "lat": 58.22388114,
        "long": 11.7333187
    },
    {
        "gid": "9021014015844000",
        "name": "Ålgård",
        "lat": 58.23381206,
        "long": 11.7441806
    },
    {
        "gid": "9021014015850000",
        "name": "Torps kyrka",
        "lat": 58.24772518,
        "long": 11.72167941
    },
    {
        "gid": "9021014015857000",
        "name": "Torp nedre",
        "lat": 58.23810875,
        "long": 11.70879635
    },
    {
        "gid": "9021014015862000",
        "name": "Museröd",
        "lat": 58.22047602,
        "long": 11.6880459
    },
    {
        "gid": "9021014015867000",
        "name": "Ryr",
        "lat": 58.19583379,
        "long": 11.7769721
    },
    {
        "gid": "9021014015871000",
        "name": "Ströms gård",
        "lat": 58.25712268,
        "long": 11.74047257
    },
    {
        "gid": "9021014015873000",
        "name": "Slussen östra",
        "lat": 58.25828421,
        "long": 11.76884423
    },
    {
        "gid": "9021014015891000",
        "name": "Stillingsön",
        "lat": 58.19367087,
        "long": 11.82801153
    },
    {
        "gid": "9021014015902000",
        "name": "Rossövägen",
        "lat": 58.12982411,
        "long": 11.66038103
    },
    {
        "gid": "9021014015909000",
        "name": "Skåpesund norra",
        "lat": 58.09493388,
        "long": 11.70676305
    },
    {
        "gid": "9021014015910000",
        "name": "Varekils busstation",
        "lat": 58.12506031,
        "long": 11.72093648
    },
    {
        "gid": "9021014015914000",
        "name": "Tingshuset",
        "lat": 58.12577117,
        "long": 11.71399026
    },
    {
        "gid": "9021014015919000",
        "name": "Lunneslätt",
        "lat": 58.14630891,
        "long": 11.60222515
    },
    {
        "gid": "9021014015936000",
        "name": "Haga västra",
        "lat": 58.13171681,
        "long": 11.60446591
    },
    {
        "gid": "9021014015945000",
        "name": "Åsen",
        "lat": 58.13144878,
        "long": 11.75243034
    },
    {
        "gid": "9021014015952000",
        "name": "Reorseröd",
        "lat": 58.15841035,
        "long": 11.80637708
    },
    {
        "gid": "9021014015961000",
        "name": "Skogen",
        "lat": 58.16343594,
        "long": 11.81829043
    },
    {
        "gid": "9021014015979000",
        "name": "Åsten",
        "lat": 58.16132822,
        "long": 11.77057245
    },
    {
        "gid": "9021014015985000",
        "name": "Ileberg",
        "lat": 58.16151134,
        "long": 11.6158262
    },
    {
        "gid": "9021014016111000",
        "name": "Videgårdsvägen",
        "lat": 57.82020183,
        "long": 12.01619278
    },
    {
        "gid": "9021014016318000",
        "name": "Spejarestigen",
        "lat": 57.88613618,
        "long": 12.07766898
    },
    {
        "gid": "9021014016319000",
        "name": "Dammekärrsvägen",
        "lat": 57.88392435,
        "long": 12.08309597
    },
    {
        "gid": "9021014016320000",
        "name": "Trollevik",
        "lat": 57.90077274,
        "long": 12.0491501
    },
    {
        "gid": "9021014016321000",
        "name": "Bönabo",
        "lat": 57.87230071,
        "long": 12.09903241
    },
    {
        "gid": "9021014016323000",
        "name": "Älmhult",
        "lat": 57.8853328,
        "long": 12.16506999
    },
    {
        "gid": "9021014016412000",
        "name": "Gallåsvägen",
        "lat": 57.9087567,
        "long": 12.05315525
    },
    {
        "gid": "9021014016422000",
        "name": "Brandsbovägen",
        "lat": 57.92281083,
        "long": 12.07288073
    },
    {
        "gid": "9021014016531000",
        "name": "Äskekärr",
        "lat": 57.93314385,
        "long": 12.08959391
    },
    {
        "gid": "9021014016558000",
        "name": "Tokatorp",
        "lat": 57.97384743,
        "long": 12.19513888
    },
    {
        "gid": "9021014016572000",
        "name": "Rannebergsvägen",
        "lat": 57.92996925,
        "long": 12.26039437
    },
    {
        "gid": "9021014016587000",
        "name": "Torp",
        "lat": 57.91670314,
        "long": 12.21077725
    },
    {
        "gid": "9021014016624000",
        "name": "Älvornas väg",
        "lat": 57.94935154,
        "long": 12.12528199
    },
    {
        "gid": "9021014016625000",
        "name": "Olof Persgatan",
        "lat": 57.94824327,
        "long": 12.10812983
    },
    {
        "gid": "9021014016710000",
        "name": "Albotorget",
        "lat": 57.98350781,
        "long": 12.21104852
    },
    {
        "gid": "9021014016740000",
        "name": "Frövetvägen",
        "lat": 57.98872317,
        "long": 12.21077826
    },
    {
        "gid": "9021014016753000",
        "name": "Blinneberg",
        "lat": 58.0089001,
        "long": 12.23142089
    },
    {
        "gid": "9021014016762000",
        "name": "Båljen",
        "lat": 58.03244,
        "long": 12.27363205
    },
    {
        "gid": "9021014016771000",
        "name": "Långetorp",
        "lat": 58.04061526,
        "long": 12.28149891
    },
    {
        "gid": "9021014016826000",
        "name": "Paulsgården",
        "lat": 57.9818692,
        "long": 12.17752569
    },
    {
        "gid": "9021014017127000",
        "name": "Lilla Stamsjön",
        "lat": 57.75917643,
        "long": 12.28166199
    },
    {
        "gid": "9021014017132000",
        "name": "Lerum vårdcentral",
        "lat": 57.76882938,
        "long": 12.26585089
    },
    {
        "gid": "9021014017149000",
        "name": "Bergsslingan",
        "lat": 57.78350417,
        "long": 12.27666966
    },
    {
        "gid": "9021014017151000",
        "name": "Höjdenhemmet",
        "lat": 57.78030291,
        "long": 12.28034275
    },
    {
        "gid": "9021014017195000",
        "name": "Ribbatorpet",
        "lat": 57.77702832,
        "long": 12.33857262
    },
    {
        "gid": "9021014017211000",
        "name": "Oryd",
        "lat": 57.80326461,
        "long": 12.33366017
    },
    {
        "gid": "9021014017233000",
        "name": "Ryggebols skola",
        "lat": 57.7910096,
        "long": 12.34405534
    },
    {
        "gid": "9021014017242000",
        "name": "Gröna vägen",
        "lat": 57.79655954,
        "long": 12.35547907
    },
    {
        "gid": "9021014017243000",
        "name": "Berghultsskola",
        "lat": 57.79897241,
        "long": 12.36691609
    },
    {
        "gid": "9021014017320000",
        "name": "Gråbo busstation",
        "lat": 57.83680102,
        "long": 12.29835931
    },
    {
        "gid": "9021014017322000",
        "name": "Västerdalsvägen",
        "lat": 57.78082411,
        "long": 12.39101613
    },
    {
        "gid": "9021014017323000",
        "name": "Hjällsnäsvägen",
        "lat": 57.83561886,
        "long": 12.29223061
    },
    {
        "gid": "9021014017430000",
        "name": "Mjörn",
        "lat": 57.85956713,
        "long": 12.31543495
    },
    {
        "gid": "9021014017443000",
        "name": "Granåsen",
        "lat": 57.88824599,
        "long": 12.3283477
    },
    {
        "gid": "9021014017451000",
        "name": "Vrån",
        "lat": 57.90392465,
        "long": 12.33891559
    },
    {
        "gid": "9021014017463000",
        "name": "Hagströms affär",
        "lat": 57.92401954,
        "long": 12.35791586
    },
    {
        "gid": "9021014017469000",
        "name": "Östad skola",
        "lat": 57.92895007,
        "long": 12.36556036
    },
    {
        "gid": "9021014017487000",
        "name": "Kastenhof",
        "lat": 57.77297098,
        "long": 12.29172609
    },
    {
        "gid": "9021014017488000",
        "name": "Hedlunds backe",
        "lat": 57.76867267,
        "long": 12.27233759
    },
    {
        "gid": "9021014017502000",
        "name": "Kungsängsgatan",
        "lat": 57.94288583,
        "long": 12.52730275
    },
    {
        "gid": "9021014017511000",
        "name": "Lilla torget",
        "lat": 57.92931981,
        "long": 12.53205346
    },
    {
        "gid": "9021014017513000",
        "name": "Lendahlsgatan",
        "lat": 57.92839219,
        "long": 12.54074842
    },
    {
        "gid": "9021014017516000",
        "name": "Vänersborgsvägen",
        "lat": 57.9292196,
        "long": 12.54310728
    },
    {
        "gid": "9021014017521000",
        "name": "Nolbyplan",
        "lat": 57.9354538,
        "long": 12.54626267
    },
    {
        "gid": "9021014017522000",
        "name": "Flaskhall",
        "lat": 58.08491107,
        "long": 12.63696369
    },
    {
        "gid": "9021014017543000",
        "name": "Sandbergsvägen",
        "lat": 57.92996304,
        "long": 12.56163723
    },
    {
        "gid": "9021014017556000",
        "name": "Stockslycke kyrka",
        "lat": 57.92199166,
        "long": 12.55410543
    },
    {
        "gid": "9021014017605000",
        "name": "Kvarnbacken",
        "lat": 57.94656717,
        "long": 12.51013285
    },
    {
        "gid": "9021014017643000",
        "name": "Björkekärrsvägen",
        "lat": 57.94455911,
        "long": 12.46133299
    },
    {
        "gid": "9021014017652000",
        "name": "Gamla Ödenäsvägen",
        "lat": 57.85296711,
        "long": 12.55852015
    },
    {
        "gid": "9021014017662000",
        "name": "Hjulån norra",
        "lat": 57.83222768,
        "long": 12.56411819
    },
    {
        "gid": "9021014017728000",
        "name": "Deragårdsvägen",
        "lat": 58.01635158,
        "long": 12.51982967
    },
    {
        "gid": "9021014017729000",
        "name": "Vagnshed",
        "lat": 58.01532938,
        "long": 12.52640232
    },
    {
        "gid": "9021014017734000",
        "name": "Hästhagen",
        "lat": 58.07440585,
        "long": 12.57287273
    },
    {
        "gid": "9021014017752000",
        "name": "Ekedalen",
        "lat": 57.96278944,
        "long": 12.40208418
    },
    {
        "gid": "9021014017753000",
        "name": "Ledet",
        "lat": 57.94731111,
        "long": 12.390917
    },
    {
        "gid": "9021014017773000",
        "name": "Anten",
        "lat": 57.98917064,
        "long": 12.44052806
    },
    {
        "gid": "9021014017788000",
        "name": "Hedvigsbergsvägen",
        "lat": 57.91957035,
        "long": 12.5122557
    },
    {
        "gid": "9021014017814000",
        "name": "Kvarnen",
        "lat": 58.12327764,
        "long": 12.51596706
    },
    {
        "gid": "9021014017815000",
        "name": "Bommavägen",
        "lat": 58.12428229,
        "long": 12.50667491
    },
    {
        "gid": "9021014017835000",
        "name": "Gräfsnäs herrgård",
        "lat": 58.09090537,
        "long": 12.49821345
    },
    {
        "gid": "9021014015907000",
        "name": "Tönsäng norra",
        "lat": 58.1659049,
        "long": 11.43793904
    },
    {
        "gid": "9021014015916000",
        "name": "Bråttkärr",
        "lat": 58.12566178,
        "long": 11.69101313
    },
    {
        "gid": "9021014015918000",
        "name": "Härlycke",
        "lat": 58.14335526,
        "long": 11.63964938
    },
    {
        "gid": "9021014015923000",
        "name": "Säckebäck södra",
        "lat": 58.09538504,
        "long": 11.72076
    },
    {
        "gid": "9021014015929000",
        "name": "Svanudden",
        "lat": 58.14041442,
        "long": 11.82933689
    },
    {
        "gid": "9021014015944000",
        "name": "Röd",
        "lat": 58.12221238,
        "long": 11.73568909
    },
    {
        "gid": "9021014015946000",
        "name": "Grenegård",
        "lat": 58.13799548,
        "long": 11.76775836
    },
    {
        "gid": "9021014015949000",
        "name": "Önne",
        "lat": 58.21260056,
        "long": 11.72839486
    },
    {
        "gid": "9021014015956000",
        "name": "Ängås industriområde",
        "lat": 58.14466606,
        "long": 11.80308757
    },
    {
        "gid": "9021014015965000",
        "name": "Lurkeröd",
        "lat": 58.158359,
        "long": 11.7435997
    },
    {
        "gid": "9021014015976000",
        "name": "Östra Bö",
        "lat": 58.16204057,
        "long": 11.79166403
    },
    {
        "gid": "9021014015981000",
        "name": "Trolltorp",
        "lat": 58.17266584,
        "long": 11.69911404
    },
    {
        "gid": "9021014015984000",
        "name": "Vräland östra",
        "lat": 58.16536489,
        "long": 11.7108467
    },
    {
        "gid": "9021014015988000",
        "name": "Skörtorp",
        "lat": 58.15269576,
        "long": 11.6465216
    },
    {
        "gid": "9021014015996000",
        "name": "Stala kyrka",
        "lat": 58.13853706,
        "long": 11.65912265
    },
    {
        "gid": "9021014016110000",
        "name": "Bruksvägen",
        "lat": 57.82822085,
        "long": 12.01475463
    },
    {
        "gid": "9021014016222000",
        "name": "Stora Viken",
        "lat": 57.87037215,
        "long": 12.03043956
    },
    {
        "gid": "9021014016300000",
        "name": "Nödinge station",
        "lat": 57.8927686,
        "long": 12.04389941
    },
    {
        "gid": "9021014016314000",
        "name": "Vadbacka",
        "lat": 57.97921128,
        "long": 12.19793369
    },
    {
        "gid": "9021014016330000",
        "name": "Dalabäcken",
        "lat": 57.88742819,
        "long": 12.12359728
    },
    {
        "gid": "9021014016410000",
        "name": "Nol station",
        "lat": 57.91846022,
        "long": 12.06195301
    },
    {
        "gid": "9021014016411000",
        "name": "Södra vägen",
        "lat": 57.91288287,
        "long": 12.05668416
    },
    {
        "gid": "9021014016512000",
        "name": "Mor Annas väg",
        "lat": 57.92583895,
        "long": 12.09712822
    },
    {
        "gid": "9021014016513000",
        "name": "Alafors fabriker",
        "lat": 57.92408847,
        "long": 12.09878983
    },
    {
        "gid": "9021014016552000",
        "name": "Krokstorp",
        "lat": 57.9446922,
        "long": 12.18529818
    },
    {
        "gid": "9021014016559000",
        "name": "Bur",
        "lat": 57.9476154,
        "long": 12.20208943
    },
    {
        "gid": "9021014016575000",
        "name": "Hultasjövägen",
        "lat": 57.93868388,
        "long": 12.23250803
    },
    {
        "gid": "9021014016601000",
        "name": "Hästhagen",
        "lat": 57.91560168,
        "long": 12.14464848
    },
    {
        "gid": "9021014016621000",
        "name": "Tolleredsvägen",
        "lat": 57.94929261,
        "long": 12.10645641
    },
    {
        "gid": "9021014016682000",
        "name": "Ljunghövdingen",
        "lat": 57.98984614,
        "long": 12.24994927
    },
    {
        "gid": "9021014016684000",
        "name": "Röserna",
        "lat": 58.00179338,
        "long": 12.2924337
    },
    {
        "gid": "9021014016732000",
        "name": "Fors",
        "lat": 57.97576758,
        "long": 12.18605747
    },
    {
        "gid": "9021014016754000",
        "name": "Rapenskårsvägen",
        "lat": 58.01292447,
        "long": 12.23754427
    },
    {
        "gid": "9021014016760000",
        "name": "Sandåker",
        "lat": 58.02815194,
        "long": 12.2668609
    },
    {
        "gid": "9021014016811000",
        "name": "Kungsvägen",
        "lat": 58.00433385,
        "long": 12.15965709
    },
    {
        "gid": "9021014016820000",
        "name": "Kattleberg",
        "lat": 57.98100527,
        "long": 12.15891628
    },
    {
        "gid": "9021014016821000",
        "name": "Bruket",
        "lat": 57.97117834,
        "long": 12.15230328
    },
    {
        "gid": "9021014016831000",
        "name": "Skönningared södra",
        "lat": 57.96735192,
        "long": 12.15439956
    },
    {
        "gid": "9021014016834000",
        "name": "Djupevik",
        "lat": 57.88551345,
        "long": 12.14307012
    },
    {
        "gid": "9021014017017000",
        "name": "Almekärrs platå",
        "lat": 57.75452907,
        "long": 12.26158549
    },
    {
        "gid": "9021014017115000",
        "name": "Aspedalen station",
        "lat": 57.76250646,
        "long": 12.25854346
    },